{
"type": "FeatureCollection",
"name": "green",
"crs": { "type": "name", "properties": { "name": "urn:ogc:def:crs:OGC:1.3:CRS84" } },
"features": [
{ "type": "Feature", "properties": { "Id": "234", "Name": "CHUS Fleurimont", "Type": "Cluster", "SAMPLE_1": 48497, "SAMPLE_2": 47186, "SAMPLE_3": 27525, "Category": 1, "NOM": "Ville de Sherbrooke" }, "geometry": { "type": "Point", "coordinates": [ -71.869576, 45.446252 ] } },
{ "type": "Feature", "properties": { "Id": "3003", "Name": "(Virtuel) Pour 600 vers STS-STS (Roy - Cabana)", "Type": "Cluster", "SAMPLE_1": 28836, "SAMPLE_2": 41943, "SAMPLE_3": 16384, "Category": 2, "NOM": "Ville de Sherbrooke" }, "geometry": { "type": "Point", "coordinates": [ -71.9276835, 45.390669 ] } },
{ "type": "Feature", "properties": { "Id": "1778", "Name": "STS (Roy - Cabana)-Société de transport de Sherbrooke", "Type": "Cluster", "SAMPLE_1": 28836, "SAMPLE_2": 41943, "SAMPLE_3": 16384, "Category": 2, "NOM": "Ville de Sherbrooke" }, "geometry": { "type": "Point", "coordinates": [ -71.9277455, 45.391955 ] } },
{ "type": "Feature", "properties": { "Id": "2285", "Name": "James-Quintin - 12e av. Nord", "Type": "Cluster", "SAMPLE_1": 28836, "SAMPLE_2": 41943, "SAMPLE_3": 16384, "Category": 2, "NOM": "Ville de Sherbrooke" }, "geometry": { "type": "Point", "coordinates": [ -71.869168, 45.444581 ] } },
{ "type": "Feature", "properties": { "Id": "2287", "Name": "CHUS Fleurimont (Entrée principale)", "Type": "Cluster", "SAMPLE_1": 28836, "SAMPLE_2": 41943, "SAMPLE_3": 16384, "Category": 2, "NOM": "Ville de Sherbrooke" }, "geometry": { "type": "Point", "coordinates": [ -71.870046, 45.447769 ] } },
{ "type": "Feature", "properties": { "Id": "7000", "Name": "Université de Sherbrooke - Quai E-Université de Sherbrooke - Quai F-Université de Sherbrooke - Quai D-Université de Sherbrooke - Quai B-Université de Sherbrooke - Quai A-Université de Sherbrooke - Quai C-Université de Sherbrooke", "Type": "Cluster", "SAMPLE_1": 20316, "SAMPLE_2": 35389, "SAMPLE_3": 11796, "Category": 3, "NOM": "Ville de Sherbrooke" }, "geometry": { "type": "Point", "coordinates": [ -71.9294734, 45.3786506 ] } },
{ "type": "Feature", "properties": { "Id": "3001", "Name": "(Virtuel) UdeS", "Type": "Cluster", "SAMPLE_1": 3932, "SAMPLE_2": 21627, "SAMPLE_3": 2621, "Category": 5, "NOM": "Ville de Sherbrooke" }, "geometry": { "type": "Point", "coordinates": [ -71.927496, 45.377642 ] } },
{ "type": "Feature", "properties": { "Id": "8000", "Name": "Carrefour de l'Estrie - Quai B-Carrefour de l'Estrie - Quai A-Carrefour de l'Estrie - Quai C-Carrefour de l'Estrie", "Type": "Cluster", "SAMPLE_1": 57016, "SAMPLE_2": 55706, "SAMPLE_3": 39977, "Category": 1, "NOM": "Ville de Sherbrooke" }, "geometry": { "type": "Point", "coordinates": [ -71.952682, 45.4023373 ] } },
{ "type": "Feature", "properties": { "Id": "419", "Name": "boul. de Portland (no.3025)", "Type": "Cluster", "SAMPLE_1": 32768, "SAMPLE_2": 45875, "SAMPLE_3": 18350, "Category": 2, "NOM": "Ville de Sherbrooke" }, "geometry": { "type": "Point", "coordinates": [ -71.948638, 45.403703 ] } },
{ "type": "Feature", "properties": { "Id": "502", "Name": "Plateau Sylvie-Daigle", "Type": "Cluster", "SAMPLE_1": 24904, "SAMPLE_2": 38666, "SAMPLE_3": 13763, "Category": 3, "NOM": "Ville de Sherbrooke" }, "geometry": { "type": "Point", "coordinates": [ -71.8848415, 45.41301 ] } },
{ "type": "Feature", "properties": { "Id": "6003", "Name": "Station du Cégep-Station du Cégep - Quai K-Station du Cégep - Quai I-Station du Cégep - Quai B-Station du Cégep - Quai A-Station du Cégep - Quai J-Station du Cégep - Quai C-Station du Cégep - Quai L-Station du Cégep - Quai D-Station du Cégep - Quai H-Station du Cégep - Quai E-Station du Cégep - Quai F", "Type": "Cluster", "SAMPLE_1": 28836, "SAMPLE_2": 41943, "SAMPLE_3": 16384, "Category": 2, "NOM": "Ville de Sherbrooke" }, "geometry": { "type": "Point", "coordinates": [ -71.8844512, 45.411641 ] } },
{ "type": "Feature", "properties": { "Id": "500", "Name": "Édifice Expo-Sherbrooke", "Type": "Cluster", "SAMPLE_1": 0, "SAMPLE_2": 17695, "SAMPLE_3": 0, "Category": 5, "NOM": "Ville de Sherbrooke" }, "geometry": { "type": "Point", "coordinates": [ -71.8829035, 45.4096445 ] } },
{ "type": "Feature", "properties": { "Id": "641", "Name": "du Cégep - Mont-Plaisant", "Type": "Cluster", "SAMPLE_1": 28836, "SAMPLE_2": 41943, "SAMPLE_3": 16384, "Category": 2, "NOM": "Ville de Sherbrooke" }, "geometry": { "type": "Point", "coordinates": [ -71.883179, 45.4077425 ] } },
{ "type": "Feature", "properties": { "Id": "257", "Name": "Complexe Saint-Vincent-de-Paul", "Type": "Cluster", "SAMPLE_1": 45220, "SAMPLE_2": 49807, "SAMPLE_3": 24904, "Category": 1, "NOM": "Ville de Sherbrooke" }, "geometry": { "type": "Point", "coordinates": [ -71.8827285, 45.4066015 ] } },
{ "type": "Feature", "properties": { "Id": "258", "Name": "Kennedy Sud - King Est", "Type": "Cluster", "SAMPLE_1": 20316, "SAMPLE_2": 35389, "SAMPLE_3": 11796, "Category": 3, "NOM": "Ville de Sherbrooke" }, "geometry": { "type": "Point", "coordinates": [ -71.883992, 45.4048825 ] } },
{ "type": "Feature", "properties": { "Id": "515", "Name": "Saint-François Nord - King Est", "Type": "Cluster", "SAMPLE_1": 32768, "SAMPLE_2": 45875, "SAMPLE_3": 18350, "Category": 2, "NOM": "Ville de Sherbrooke" }, "geometry": { "type": "Point", "coordinates": [ -71.886464, 45.403651 ] } },
{ "type": "Feature", "properties": { "Id": "2317", "Name": "King - Wellington-Wellington Nord - King Ouest", "Type": "Cluster", "SAMPLE_1": 60293, "SAMPLE_2": 60293, "SAMPLE_3": 60293, "Category": 1, "NOM": "Ville de Sherbrooke" }, "geometry": { "type": "Point", "coordinates": [ -71.8905803, 45.4017763 ] } },
{ "type": "Feature", "properties": { "Id": "710", "Name": "Alexandre - King Ouest-Place de la Cité-King Ouest - Peel", "Type": "Cluster", "SAMPLE_1": 56361, "SAMPLE_2": 56361, "SAMPLE_3": 56361, "Category": 1, "NOM": "Ville de Sherbrooke" }, "geometry": { "type": "Point", "coordinates": [ -71.8938672, 45.3995637 ] } },
{ "type": "Feature", "properties": { "Id": "2180", "Name": "École Sacré-Cœur", "Type": "Cluster", "SAMPLE_1": 41943, "SAMPLE_2": 52429, "SAMPLE_3": 22938, "Category": 1, "NOM": "Ville de Sherbrooke" }, "geometry": { "type": "Point", "coordinates": [ -71.8928007, 45.3977483 ] } },
{ "type": "Feature", "properties": { "Id": "1707", "Name": "Parc du Petit-Canada-Aberdeen - Gillepsie- Alexandre", "Type": "Cluster", "SAMPLE_1": 28836, "SAMPLE_2": 41943, "SAMPLE_3": 16384, "Category": 2, "NOM": "Ville de Sherbrooke" }, "geometry": { "type": "Point", "coordinates": [ -71.8911785, 45.3960997 ] } },
{ "type": "Feature", "properties": { "Id": "2460", "Name": "Galt Ouest - Alexandre", "Type": "Cluster", "SAMPLE_1": 24904, "SAMPLE_2": 38666, "SAMPLE_3": 13763, "Category": 3, "NOM": "Ville de Sherbrooke" }, "geometry": { "type": "Point", "coordinates": [ -71.8906244, 45.3942486 ] } },
{ "type": "Feature", "properties": { "Id": "750", "Name": "Galt Ouest (le Centre Sherbrooke)", "Type": "Cluster", "SAMPLE_1": 45220, "SAMPLE_2": 49807, "SAMPLE_3": 24904, "Category": 1, "NOM": "Ville de Sherbrooke" }, "geometry": { "type": "Point", "coordinates": [ -71.8949685, 45.394565 ] } },
{ "type": "Feature", "properties": { "Id": "520", "Name": "Galt Ouest - de Courcelette", "Type": "Cluster", "SAMPLE_1": 28836, "SAMPLE_2": 41943, "SAMPLE_3": 16384, "Category": 2, "NOM": "Ville de Sherbrooke" }, "geometry": { "type": "Point", "coordinates": [ -71.8986135, 45.393444 ] } },
{ "type": "Feature", "properties": { "Id": "713", "Name": "Galt Ouest - de Kingston", "Type": "Cluster", "SAMPLE_1": 37356, "SAMPLE_2": 49152, "SAMPLE_3": 20972, "Category": 2, "NOM": "Ville de Sherbrooke" }, "geometry": { "type": "Point", "coordinates": [ -71.9016927, 45.3920963 ] } },
{ "type": "Feature", "properties": { "Id": "2164", "Name": "du Pacifique - Kitchener", "Type": "Cluster", "SAMPLE_1": 45220, "SAMPLE_2": 49807, "SAMPLE_3": 24904, "Category": 1, "NOM": "Ville de Sherbrooke" }, "geometry": { "type": "Point", "coordinates": [ -71.9059555, 45.3918805 ] } },
{ "type": "Feature", "properties": { "Id": "660", "Name": "du Pacifique - Haig", "Type": "Cluster", "SAMPLE_1": 3932, "SAMPLE_2": 21627, "SAMPLE_3": 2621, "Category": 5, "NOM": "Ville de Sherbrooke" }, "geometry": { "type": "Point", "coordinates": [ -71.90894, 45.391802 ] } },
{ "type": "Feature", "properties": { "Id": "690", "Name": "de Dieppe - du Pacifique", "Type": "Cluster", "SAMPLE_1": 24904, "SAMPLE_2": 38666, "SAMPLE_3": 13763, "Category": 3, "NOM": "Ville de Sherbrooke" }, "geometry": { "type": "Point", "coordinates": [ -71.9120675, 45.391486 ] } },
{ "type": "Feature", "properties": { "Id": "689", "Name": "McManamy - de Dieppe-Denault ", "Type": "Cluster", "SAMPLE_1": 24904, "SAMPLE_2": 38666, "SAMPLE_3": 13763, "Category": 3, "NOM": "Ville de Sherbrooke" }, "geometry": { "type": "Point", "coordinates": [ -71.9119862, 45.3894993 ] } },
{ "type": "Feature", "properties": { "Id": "1406", "Name": "McManamy (no.1560)", "Type": "Cluster", "SAMPLE_1": 20316, "SAMPLE_2": 35389, "SAMPLE_3": 11796, "Category": 3, "NOM": "Ville de Sherbrooke" }, "geometry": { "type": "Point", "coordinates": [ -71.913643, 45.3896015 ] } },
{ "type": "Feature", "properties": { "Id": "663", "Name": "McManamy - Claire-Jolicoeur", "Type": "Cluster", "SAMPLE_1": 28836, "SAMPLE_2": 41943, "SAMPLE_3": 16384, "Category": 2, "NOM": "Ville de Sherbrooke" }, "geometry": { "type": "Point", "coordinates": [ -71.915563, 45.389645 ] } },
{ "type": "Feature", "properties": { "Id": "573", "Name": "Claire-Jolicoeur - Denault", "Type": "Cluster", "SAMPLE_1": 32768, "SAMPLE_2": 45875, "SAMPLE_3": 18350, "Category": 2, "NOM": "Ville de Sherbrooke" }, "geometry": { "type": "Point", "coordinates": [ -71.915569, 45.388666 ] } },
{ "type": "Feature", "properties": { "Id": "574", "Name": "boul. Jacques-Cartier Sud - Denault", "Type": "Cluster", "SAMPLE_1": 20316, "SAMPLE_2": 35389, "SAMPLE_3": 11796, "Category": 3, "NOM": "Ville de Sherbrooke" }, "geometry": { "type": "Point", "coordinates": [ -71.917552, 45.3885255 ] } },
{ "type": "Feature", "properties": { "Id": "2398", "Name": "Denault - Saint-Denis", "Type": "Cluster", "SAMPLE_1": 20316, "SAMPLE_2": 35389, "SAMPLE_3": 11796, "Category": 3, "NOM": "Ville de Sherbrooke" }, "geometry": { "type": "Point", "coordinates": [ -71.919513, 45.388553 ] } },
{ "type": "Feature", "properties": { "Id": "161", "Name": "Denault - Saint-Raymond", "Type": "Cluster", "SAMPLE_1": 16384, "SAMPLE_2": 32113, "SAMPLE_3": 9175, "Category": 4, "NOM": "Ville de Sherbrooke" }, "geometry": { "type": "Point", "coordinates": [ -71.92222, 45.388414 ] } },
{ "type": "Feature", "properties": { "Id": "162", "Name": "Denault - de Cherbourg", "Type": "Cluster", "SAMPLE_1": 12452, "SAMPLE_2": 28180, "SAMPLE_3": 7209, "Category": 4, "NOM": "Ville de Sherbrooke" }, "geometry": { "type": "Point", "coordinates": [ -71.924914, 45.388319 ] } },
{ "type": "Feature", "properties": { "Id": "1316", "Name": "Denault - Cabana", "Type": "Cluster", "SAMPLE_1": 16384, "SAMPLE_2": 32113, "SAMPLE_3": 9175, "Category": 4, "NOM": "Ville de Sherbrooke" }, "geometry": { "type": "Point", "coordinates": [ -71.927368, 45.388207 ] } },
{ "type": "Feature", "properties": { "Id": "164", "Name": "Denault - du Saint-Esprit", "Type": "Cluster", "SAMPLE_1": 3932, "SAMPLE_2": 21627, "SAMPLE_3": 2621, "Category": 5, "NOM": "Ville de Sherbrooke" }, "geometry": { "type": "Point", "coordinates": [ -71.929353, 45.388103 ] } },
{ "type": "Feature", "properties": { "Id": "165", "Name": "du Saint-Esprit - Galt Ouest-Galt Ouest - Prunier- Léonard", "Type": "Cluster", "SAMPLE_1": 32768, "SAMPLE_2": 45875, "SAMPLE_3": 18350, "Category": 2, "NOM": "Ville de Sherbrooke" }, "geometry": { "type": "Point", "coordinates": [ -71.9293822, 45.3870098 ] } },
{ "type": "Feature", "properties": { "Id": "2277", "Name": "École du Saint-Esprit", "Type": "Cluster", "SAMPLE_1": 20316, "SAMPLE_2": 35389, "SAMPLE_3": 11796, "Category": 3, "NOM": "Ville de Sherbrooke" }, "geometry": { "type": "Point", "coordinates": [ -71.933186, 45.3870785 ] } },
{ "type": "Feature", "properties": { "Id": "491", "Name": "Galt Ouest - Desnoyers", "Type": "Cluster", "SAMPLE_1": 32768, "SAMPLE_2": 45875, "SAMPLE_3": 18350, "Category": 2, "NOM": "Ville de Sherbrooke" }, "geometry": { "type": "Point", "coordinates": [ -71.9355195, 45.3870685 ] } },
{ "type": "Feature", "properties": { "Id": "474", "Name": "Galt Ouest - Panneton", "Type": "Cluster", "SAMPLE_1": 28836, "SAMPLE_2": 41943, "SAMPLE_3": 16384, "Category": 2, "NOM": "Ville de Sherbrooke" }, "geometry": { "type": "Point", "coordinates": [ -71.939836, 45.387032 ] } },
{ "type": "Feature", "properties": { "Id": "475", "Name": "Galt Ouest - Bélanger", "Type": "Cluster", "SAMPLE_1": 24904, "SAMPLE_2": 38666, "SAMPLE_3": 13763, "Category": 3, "NOM": "Ville de Sherbrooke" }, "geometry": { "type": "Point", "coordinates": [ -71.94241, 45.387007 ] } },
{ "type": "Feature", "properties": { "Id": "2078", "Name": "de Lisieux - Galt Ouest- Descoteaux", "Type": "Cluster", "SAMPLE_1": 16384, "SAMPLE_2": 32113, "SAMPLE_3": 9175, "Category": 4, "NOM": "Ville de Sherbrooke" }, "geometry": { "type": "Point", "coordinates": [ -71.9441843, 45.386854 ] } },
{ "type": "Feature", "properties": { "Id": "2076", "Name": "de Lisieux - de Lachine", "Type": "Cluster", "SAMPLE_1": 12452, "SAMPLE_2": 28180, "SAMPLE_3": 7209, "Category": 4, "NOM": "Ville de Sherbrooke" }, "geometry": { "type": "Point", "coordinates": [ -71.9442845, 45.3890195 ] } },
{ "type": "Feature", "properties": { "Id": "678", "Name": "de Lisieux - Gervais", "Type": "Cluster", "SAMPLE_1": 12452, "SAMPLE_2": 28180, "SAMPLE_3": 7209, "Category": 4, "NOM": "Ville de Sherbrooke" }, "geometry": { "type": "Point", "coordinates": [ -71.9444225, 45.3909715 ] } },
{ "type": "Feature", "properties": { "Id": "677", "Name": "Gervais - Genest", "Type": "Cluster", "SAMPLE_1": 0, "SAMPLE_2": 17695, "SAMPLE_3": 0, "Category": 5, "NOM": "Ville de Sherbrooke" }, "geometry": { "type": "Point", "coordinates": [ -71.9458315, 45.39061 ] } },
{ "type": "Feature", "properties": { "Id": "1480", "Name": "Gervais - Delorme", "Type": "Cluster", "SAMPLE_1": 49152, "SAMPLE_2": 49152, "SAMPLE_3": 49152, "Category": 1, "NOM": "Ville de Sherbrooke" }, "geometry": { "type": "Point", "coordinates": [ -71.94757, 45.3897535 ] } },
{ "type": "Feature", "properties": { "Id": "2075", "Name": "Parc de Marie-Médiatrice", "Type": "Cluster", "SAMPLE_1": 3932, "SAMPLE_2": 21627, "SAMPLE_3": 2621, "Category": 5, "NOM": "Ville de Sherbrooke" }, "geometry": { "type": "Point", "coordinates": [ -71.948988, 45.3885865 ] } },
{ "type": "Feature", "properties": { "Id": "1389", "Name": "Jolliet (no.1341)", "Type": "Cluster", "SAMPLE_1": 16384, "SAMPLE_2": 32113, "SAMPLE_3": 9175, "Category": 4, "NOM": "Ville de Sherbrooke" }, "geometry": { "type": "Point", "coordinates": [ -71.949031, 45.387033 ] } },
{ "type": "Feature", "properties": { "Id": "1390", "Name": "Jolliet - Galt Ouest", "Type": "Cluster", "SAMPLE_1": 20316, "SAMPLE_2": 35389, "SAMPLE_3": 11796, "Category": 3, "NOM": "Ville de Sherbrooke" }, "geometry": { "type": "Point", "coordinates": [ -71.948992, 45.385952 ] } },
{ "type": "Feature", "properties": { "Id": "1527", "Name": "Duluth - de Lisieux-École du Triolet", "Type": "Cluster", "SAMPLE_1": 3932, "SAMPLE_2": 21627, "SAMPLE_3": 2621, "Category": 5, "NOM": "Ville de Sherbrooke" }, "geometry": { "type": "Point", "coordinates": [ -71.947644, 45.3827277 ] } },
{ "type": "Feature", "properties": { "Id": "1394_merged_855802", "Name": "École du Triolet", "Type": "Cluster", "SAMPLE_1": 0, "SAMPLE_2": 17695, "SAMPLE_3": 0, "Category": 5, "NOM": "Ville de Sherbrooke" }, "geometry": { "type": "Point", "coordinates": [ -71.9453155, 45.383572 ] } },
{ "type": "Feature", "properties": { "Id": "490", "Name": "Galt Ouest - Godbout", "Type": "Cluster", "SAMPLE_1": 28836, "SAMPLE_2": 41943, "SAMPLE_3": 16384, "Category": 2, "NOM": "Ville de Sherbrooke" }, "geometry": { "type": "Point", "coordinates": [ -71.937254, 45.386968 ] } },
{ "type": "Feature", "properties": { "Id": "2079", "Name": "Galt Ouest - boul. de l'Université", "Type": "Cluster", "SAMPLE_1": 24904, "SAMPLE_2": 38666, "SAMPLE_3": 13763, "Category": 3, "NOM": "Ville de Sherbrooke" }, "geometry": { "type": "Point", "coordinates": [ -71.9245, 45.386873 ] } },
{ "type": "Feature", "properties": { "Id": "462", "Name": "Galt Ouest - Saint-Hubert- Saint-Raymond", "Type": "Cluster", "SAMPLE_1": 32768, "SAMPLE_2": 45875, "SAMPLE_3": 18350, "Category": 2, "NOM": "Ville de Sherbrooke" }, "geometry": { "type": "Point", "coordinates": [ -71.9221805, 45.386877 ] } },
{ "type": "Feature", "properties": { "Id": "174", "Name": "Galt Ouest - Saint-Raymond- Saint-Denis", "Type": "Cluster", "SAMPLE_1": 28836, "SAMPLE_2": 41943, "SAMPLE_3": 16384, "Category": 2, "NOM": "Ville de Sherbrooke" }, "geometry": { "type": "Point", "coordinates": [ -71.9201365, 45.386852 ] } },
{ "type": "Feature", "properties": { "Id": "577", "Name": "Parc du Frère-Théode", "Type": "Cluster", "SAMPLE_1": 32768, "SAMPLE_2": 45875, "SAMPLE_3": 18350, "Category": 2, "NOM": "Ville de Sherbrooke" }, "geometry": { "type": "Point", "coordinates": [ -71.917581, 45.386757 ] } },
{ "type": "Feature", "properties": { "Id": "1565", "Name": "Parc de Notre-Dame-du-Rosaire", "Type": "Cluster", "SAMPLE_1": 28836, "SAMPLE_2": 41943, "SAMPLE_3": 16384, "Category": 2, "NOM": "Ville de Sherbrooke" }, "geometry": { "type": "Point", "coordinates": [ -71.9151955, 45.386939 ] } },
{ "type": "Feature", "properties": { "Id": "2163", "Name": "du Pacifique - Galt Ouest", "Type": "Cluster", "SAMPLE_1": 41943, "SAMPLE_2": 52429, "SAMPLE_3": 22938, "Category": 1, "NOM": "Ville de Sherbrooke" }, "geometry": { "type": "Point", "coordinates": [ -71.90326, 45.391819 ] } },
{ "type": "Feature", "properties": { "Id": "2459", "Name": "Galt Ouest - Saint-Pierre", "Type": "Cluster", "SAMPLE_1": 28836, "SAMPLE_2": 41943, "SAMPLE_3": 16384, "Category": 2, "NOM": "Ville de Sherbrooke" }, "geometry": { "type": "Point", "coordinates": [ -71.8925665, 45.394336 ] } },
{ "type": "Feature", "properties": { "Id": "349", "Name": "King Ouest - Brooks", "Type": "Cluster", "SAMPLE_1": 48497, "SAMPLE_2": 47186, "SAMPLE_3": 27525, "Category": 1, "NOM": "Ville de Sherbrooke" }, "geometry": { "type": "Point", "coordinates": [ -71.892192, 45.40025 ] } },
{ "type": "Feature", "properties": { "Id": "5100", "Name": "King - Wellington", "Type": "Cluster", "SAMPLE_1": 41943, "SAMPLE_2": 52429, "SAMPLE_3": 22938, "Category": 1, "NOM": "Ville de Sherbrooke" }, "geometry": { "type": "Point", "coordinates": [ -71.889237, 45.401701 ] } },
{ "type": "Feature", "properties": { "Id": "102", "Name": "Pont Aylmer", "Type": "Cluster", "SAMPLE_1": 37356, "SAMPLE_2": 49152, "SAMPLE_3": 20972, "Category": 2, "NOM": "Ville de Sherbrooke" }, "geometry": { "type": "Point", "coordinates": [ -71.88779, 45.402473 ] } },
{ "type": "Feature", "properties": { "Id": "915", "Name": "King Est - Bowen Sud-Parc Félix-Thibault", "Type": "Cluster", "SAMPLE_1": 48497, "SAMPLE_2": 47186, "SAMPLE_3": 27525, "Category": 1, "NOM": "Ville de Sherbrooke" }, "geometry": { "type": "Point", "coordinates": [ -71.885206, 45.4041025 ] } },
{ "type": "Feature", "properties": { "Id": "3012", "Name": "(Virtuel) Autoroutes 10 - 410", "Type": "Cluster", "SAMPLE_1": 16384, "SAMPLE_2": 32113, "SAMPLE_3": 9175, "Category": 4, "NOM": "Ville de Sherbrooke" }, "geometry": { "type": "Point", "coordinates": [ -71.974509, 45.422798 ] } },
{ "type": "Feature", "properties": { "Id": "2419", "Name": "boul. de l'Université - A-410", "Type": "Cluster", "SAMPLE_1": 24904, "SAMPLE_2": 38666, "SAMPLE_3": 13763, "Category": 3, "NOM": "Ville de Sherbrooke" }, "geometry": { "type": "Point", "coordinates": [ -71.948543, 45.377159 ] } },
{ "type": "Feature", "properties": { "Id": "1234", "Name": "École du Triolet - Parc Innovation", "Type": "Cluster", "SAMPLE_1": 20316, "SAMPLE_2": 35389, "SAMPLE_3": 11796, "Category": 3, "NOM": "Ville de Sherbrooke" }, "geometry": { "type": "Point", "coordinates": [ -71.9438815, 45.3802555 ] } },
{ "type": "Feature", "properties": { "Id": "169", "Name": "boul. de l'Université - Prunier", "Type": "Cluster", "SAMPLE_1": 12452, "SAMPLE_2": 28180, "SAMPLE_3": 7209, "Category": 4, "NOM": "Ville de Sherbrooke" }, "geometry": { "type": "Point", "coordinates": [ -71.930557, 45.381401 ] } },
{ "type": "Feature", "properties": { "Id": "171", "Name": "boul. de l'Université - Cabana", "Type": "Cluster", "SAMPLE_1": 20316, "SAMPLE_2": 35389, "SAMPLE_3": 11796, "Category": 3, "NOM": "Ville de Sherbrooke" }, "geometry": { "type": "Point", "coordinates": [ -71.927936, 45.382214 ] } },
{ "type": "Feature", "properties": { "Id": "1548", "Name": "boul. de l'Université - du Montagnais", "Type": "Cluster", "SAMPLE_1": 20316, "SAMPLE_2": 35389, "SAMPLE_3": 11796, "Category": 3, "NOM": "Ville de Sherbrooke" }, "geometry": { "type": "Point", "coordinates": [ -71.9251925, 45.383593 ] } },
{ "type": "Feature", "properties": { "Id": "1504", "Name": "Université de Sherbrooke (Sciences)", "Type": "Cluster", "SAMPLE_1": 28836, "SAMPLE_2": 41943, "SAMPLE_3": 16384, "Category": 2, "NOM": "Ville de Sherbrooke" }, "geometry": { "type": "Point", "coordinates": [ -71.924045, 45.381538 ] } },
{ "type": "Feature", "properties": { "Id": "1505", "Name": "Université de Sherbrooke (Musique)", "Type": "Cluster", "SAMPLE_1": 16384, "SAMPLE_2": 32113, "SAMPLE_3": 9175, "Category": 4, "NOM": "Ville de Sherbrooke" }, "geometry": { "type": "Point", "coordinates": [ -71.923616, 45.379724 ] } },
{ "type": "Feature", "properties": { "Id": "1536", "Name": "Université de Sherbrooke (Génie)", "Type": "Cluster", "SAMPLE_1": 16384, "SAMPLE_2": 32113, "SAMPLE_3": 9175, "Category": 4, "NOM": "Ville de Sherbrooke" }, "geometry": { "type": "Point", "coordinates": [ -71.924772, 45.378294 ] } },
{ "type": "Feature", "properties": { "Id": "3011", "Name": "(Virtuel) Autoroutes 10 - 610", "Type": "Cluster", "SAMPLE_1": 16384, "SAMPLE_2": 32113, "SAMPLE_3": 9175, "Category": 4, "NOM": "Ville de Sherbrooke" }, "geometry": { "type": "Point", "coordinates": [ -71.955743, 45.438653 ] } },
{ "type": "Feature", "properties": { "Id": "2283", "Name": "CHUS Fleurimont (Centre de recherche)", "Type": "Cluster", "SAMPLE_1": 20316, "SAMPLE_2": 35389, "SAMPLE_3": 11796, "Category": 3, "NOM": "Ville de Sherbrooke" }, "geometry": { "type": "Point", "coordinates": [ -71.870428, 45.449222 ] } },
{ "type": "Feature", "properties": { "Id": "2430", "Name": "CHUS Fleurimont (Résidences)", "Type": "Cluster", "SAMPLE_1": 24904, "SAMPLE_2": 38666, "SAMPLE_3": 13763, "Category": 3, "NOM": "Ville de Sherbrooke" }, "geometry": { "type": "Point", "coordinates": [ -71.86962, 45.449785 ] } },
{ "type": "Feature", "properties": { "Id": "233", "Name": "CHUS Fleurimont (Bio-Med)", "Type": "Cluster", "SAMPLE_1": 16384, "SAMPLE_2": 32113, "SAMPLE_3": 9175, "Category": 4, "NOM": "Ville de Sherbrooke" }, "geometry": { "type": "Point", "coordinates": [ -71.865163, 45.449819 ] } },
{ "type": "Feature", "properties": { "Id": "1041", "Name": "CHUS Fleurimont (Porte 35)", "Type": "Cluster", "SAMPLE_1": 32768, "SAMPLE_2": 45875, "SAMPLE_3": 18350, "Category": 2, "NOM": "Ville de Sherbrooke" }, "geometry": { "type": "Point", "coordinates": [ -71.867727, 45.447262 ] } },
{ "type": "Feature", "properties": { "Id": "1788", "Name": "CHUS Fleurimont - 12e Avenue Nord", "Type": "Cluster", "SAMPLE_1": 16384, "SAMPLE_2": 32113, "SAMPLE_3": 9175, "Category": 4, "NOM": "Ville de Sherbrooke" }, "geometry": { "type": "Point", "coordinates": [ -71.862433, 45.448531 ] } },
{ "type": "Feature", "properties": { "Id": "2294", "Name": "Stationnement incitatif Nortrhop Frye", "Type": "Cluster", "SAMPLE_1": 28836, "SAMPLE_2": 41943, "SAMPLE_3": 16384, "Category": 2, "NOM": "Ville de Sherbrooke" }, "geometry": { "type": "Point", "coordinates": [ -71.955094, 45.404795 ] } },
{ "type": "Feature", "properties": { "Id": "1220", "Name": "du Haut-Bois - Boulevard Bourque", "Type": "Cluster", "SAMPLE_1": 28836, "SAMPLE_2": 41943, "SAMPLE_3": 16384, "Category": 2, "NOM": "Ville de Sherbrooke" }, "geometry": { "type": "Point", "coordinates": [ -71.991006, 45.371145 ] } },
{ "type": "Feature", "properties": { "Id": "878", "Name": "Poisson - Magloire", "Type": "Cluster", "SAMPLE_1": 12452, "SAMPLE_2": 28180, "SAMPLE_3": 7209, "Category": 4, "NOM": "Ville de Sherbrooke" }, "geometry": { "type": "Point", "coordinates": [ -71.9931765, 45.371982 ] } },
{ "type": "Feature", "properties": { "Id": "1693", "Name": "Boul. René-Lévesque-Henri-Labonne", "Type": "Cluster", "SAMPLE_1": 8520, "SAMPLE_2": 24904, "SAMPLE_3": 4588, "Category": 5, "NOM": "Ville de Sherbrooke" }, "geometry": { "type": "Point", "coordinates": [ -71.9991685, 45.3770415 ] } },
{ "type": "Feature", "properties": { "Id": "1695", "Name": "Boul. René-Lévesque- Refuge 10", "Type": "Cluster", "SAMPLE_1": 0, "SAMPLE_2": 17695, "SAMPLE_3": 0, "Category": 5, "NOM": "Ville de Sherbrooke" }, "geometry": { "type": "Point", "coordinates": [ -71.998839, 45.379993 ] } },
{ "type": "Feature", "properties": { "Id": "1696", "Name": "Boul. René-Lévesque- Matisse", "Type": "Cluster", "SAMPLE_1": 20316, "SAMPLE_2": 35389, "SAMPLE_3": 11796, "Category": 3, "NOM": "Ville de Sherbrooke" }, "geometry": { "type": "Point", "coordinates": [ -71.997271, 45.383841 ] } },
{ "type": "Feature", "properties": { "Id": "1689", "Name": "Boul. René-Lévesque- Magnelli- St-Claire", "Type": "Cluster", "SAMPLE_1": 28836, "SAMPLE_2": 41943, "SAMPLE_3": 16384, "Category": 2, "NOM": "Ville de Sherbrooke" }, "geometry": { "type": "Point", "coordinates": [ -71.9953125, 45.3870145 ] } },
{ "type": "Feature", "properties": { "Id": "1698", "Name": "Boul. René-Lévesque- Refuge 13", "Type": "Cluster", "SAMPLE_1": 28836, "SAMPLE_2": 41943, "SAMPLE_3": 16384, "Category": 2, "NOM": "Ville de Sherbrooke" }, "geometry": { "type": "Point", "coordinates": [ -71.993978, 45.38868 ] } },
{ "type": "Feature", "properties": { "Id": "1699", "Name": "Boul. René-Lévesque- Refuge 14", "Type": "Cluster", "SAMPLE_1": 12452, "SAMPLE_2": 28180, "SAMPLE_3": 7209, "Category": 4, "NOM": "Ville de Sherbrooke" }, "geometry": { "type": "Point", "coordinates": [ -71.991639, 45.390095 ] } },
{ "type": "Feature", "properties": { "Id": "1700", "Name": "Boul. René-Lévesque- Refuge 15", "Type": "Cluster", "SAMPLE_1": 48497, "SAMPLE_2": 47186, "SAMPLE_3": 27525, "Category": 1, "NOM": "Ville de Sherbrooke" }, "geometry": { "type": "Point", "coordinates": [ -71.988366, 45.390826 ] } },
{ "type": "Feature", "properties": { "Id": "1701", "Name": "Boul. René-Lévesque- Refuge 16", "Type": "Cluster", "SAMPLE_1": 24904, "SAMPLE_2": 38666, "SAMPLE_3": 13763, "Category": 3, "NOM": "Ville de Sherbrooke" }, "geometry": { "type": "Point", "coordinates": [ -71.984935, 45.392886 ] } },
{ "type": "Feature", "properties": { "Id": "1683", "Name": "Boul. Portland-Boul. Industriel", "Type": "Cluster", "SAMPLE_1": 8520, "SAMPLE_2": 24904, "SAMPLE_3": 4588, "Category": 5, "NOM": "Ville de Sherbrooke" }, "geometry": { "type": "Point", "coordinates": [ -71.984192, 45.396371 ] } },
{ "type": "Feature", "properties": { "Id": "1681", "Name": "Boul.Portland (face au 4545)-Boul. Portland (4545)", "Type": "Cluster", "SAMPLE_1": 28836, "SAMPLE_2": 41943, "SAMPLE_3": 16384, "Category": 2, "NOM": "Ville de Sherbrooke" }, "geometry": { "type": "Point", "coordinates": [ -71.979965, 45.3999115 ] } },
{ "type": "Feature", "properties": { "Id": "1685", "Name": "Boul.Portland-Léger", "Type": "Cluster", "SAMPLE_1": 20316, "SAMPLE_2": 35389, "SAMPLE_3": 11796, "Category": 3, "NOM": "Ville de Sherbrooke" }, "geometry": { "type": "Point", "coordinates": [ -71.975212, 45.402096 ] } },
{ "type": "Feature", "properties": { "Id": "1763", "Name": "4240  boul. de Portland-4255  boul. de Portland", "Type": "Cluster", "SAMPLE_1": 20316, "SAMPLE_2": 35389, "SAMPLE_3": 11796, "Category": 3, "NOM": "Ville de Sherbrooke" }, "geometry": { "type": "Point", "coordinates": [ -71.9718275, 45.402499 ] } },
{ "type": "Feature", "properties": { "Id": "1679", "Name": "Portland - Pépin-Pépin - boul. Indusrtiel", "Type": "Cluster", "SAMPLE_1": 28836, "SAMPLE_2": 41943, "SAMPLE_3": 16384, "Category": 2, "NOM": "Ville de Sherbrooke" }, "geometry": { "type": "Point", "coordinates": [ -71.9684637, 45.4027223 ] } },
{ "type": "Feature", "properties": { "Id": "1727", "Name": "Ind. - Portland-boul. Industriel - boul. de Portland", "Type": "Cluster", "SAMPLE_1": 16384, "SAMPLE_2": 32113, "SAMPLE_3": 9175, "Category": 4, "NOM": "Ville de Sherbrooke" }, "geometry": { "type": "Point", "coordinates": [ -71.963437, 45.4025213 ] } },
{ "type": "Feature", "properties": { "Id": "1447", "Name": "boul. de Portland - Northrop-Frye-Carrefour de l'Estrie (Archambault)", "Type": "Cluster", "SAMPLE_1": 45220, "SAMPLE_2": 49807, "SAMPLE_3": 24904, "Category": 1, "NOM": "Ville de Sherbrooke" }, "geometry": { "type": "Point", "coordinates": [ -71.9564565, 45.402693 ] } },
{ "type": "Feature", "properties": { "Id": "1342", "Name": "boul. de Portland (no 3050)", "Type": "Cluster", "SAMPLE_1": 48497, "SAMPLE_2": 47186, "SAMPLE_3": 27525, "Category": 1, "NOM": "Ville de Sherbrooke" }, "geometry": { "type": "Point", "coordinates": [ -71.954699, 45.403125 ] } },
{ "type": "Feature", "properties": { "Id": "311", "Name": "boul. de Portland - McCrea", "Type": "Cluster", "SAMPLE_1": 32768, "SAMPLE_2": 45875, "SAMPLE_3": 18350, "Category": 2, "NOM": "Ville de Sherbrooke" }, "geometry": { "type": "Point", "coordinates": [ -71.953449, 45.4034595 ] } },
{ "type": "Feature", "properties": { "Id": "1680", "Name": "Boul. Portland - Léger", "Type": "Cluster", "SAMPLE_1": 3932, "SAMPLE_2": 21627, "SAMPLE_3": 2621, "Category": 5, "NOM": "Ville de Sherbrooke" }, "geometry": { "type": "Point", "coordinates": [ -71.974472, 45.402638 ] } },
{ "type": "Feature", "properties": { "Id": "1730", "Name": "Portland - Joseph-Louis-Mathieu", "Type": "Cluster", "SAMPLE_1": 48497, "SAMPLE_2": 47186, "SAMPLE_3": 27525, "Category": 1, "NOM": "Ville de Sherbrooke" }, "geometry": { "type": "Point", "coordinates": [ -71.9783715, 45.4017455 ] } },
{ "type": "Feature", "properties": { "Id": "1682", "Name": "Boul. Portland - Robert-Boyd-Robert-Boyd - Portland", "Type": "Cluster", "SAMPLE_1": 24904, "SAMPLE_2": 38666, "SAMPLE_3": 13763, "Category": 3, "NOM": "Ville de Sherbrooke" }, "geometry": { "type": "Point", "coordinates": [ -71.9833875, 45.397866 ] } },
{ "type": "Feature", "properties": { "Id": "1686", "Name": "Boul. Industriel - Boul. René-Lévesque", "Type": "Cluster", "SAMPLE_1": 20316, "SAMPLE_2": 35389, "SAMPLE_3": 11796, "Category": 3, "NOM": "Ville de Sherbrooke" }, "geometry": { "type": "Point", "coordinates": [ -71.98491, 45.394918 ] } },
{ "type": "Feature", "properties": { "Id": "1705", "Name": "Boul. René-Lévesque - Dufour", "Type": "Cluster", "SAMPLE_1": 24904, "SAMPLE_2": 38666, "SAMPLE_3": 13763, "Category": 3, "NOM": "Ville de Sherbrooke" }, "geometry": { "type": "Point", "coordinates": [ -71.986252, 45.392061 ] } },
{ "type": "Feature", "properties": { "Id": "1687", "Name": "Boul. René-Lévesque- Refuge 2", "Type": "Cluster", "SAMPLE_1": 24904, "SAMPLE_2": 38666, "SAMPLE_3": 13763, "Category": 3, "NOM": "Ville de Sherbrooke" }, "geometry": { "type": "Point", "coordinates": [ -71.990265, 45.390735 ] } },
{ "type": "Feature", "properties": { "Id": "1688", "Name": "Boul. René-Lévesque- Refuge 3", "Type": "Cluster", "SAMPLE_1": 8520, "SAMPLE_2": 24904, "SAMPLE_3": 4588, "Category": 5, "NOM": "Ville de Sherbrooke" }, "geometry": { "type": "Point", "coordinates": [ -71.993328, 45.389646 ] } },
{ "type": "Feature", "properties": { "Id": "1690", "Name": "Boul. René-Lévesque- Saint-Benoît", "Type": "Cluster", "SAMPLE_1": 16384, "SAMPLE_2": 32113, "SAMPLE_3": 9175, "Category": 4, "NOM": "Ville de Sherbrooke" }, "geometry": { "type": "Point", "coordinates": [ -71.996728, 45.385639 ] } },
{ "type": "Feature", "properties": { "Id": "1691", "Name": "Boul. René-Lévesque- Matisse", "Type": "Cluster", "SAMPLE_1": 8520, "SAMPLE_2": 24904, "SAMPLE_3": 4588, "Category": 5, "NOM": "Ville de Sherbrooke" }, "geometry": { "type": "Point", "coordinates": [ -71.998649, 45.382541 ] } },
{ "type": "Feature", "properties": { "Id": "1692", "Name": "Boul. René-Lévesque- Refuge 7", "Type": "Cluster", "SAMPLE_1": 24904, "SAMPLE_2": 38666, "SAMPLE_3": 13763, "Category": 3, "NOM": "Ville de Sherbrooke" }, "geometry": { "type": "Point", "coordinates": [ -71.999543, 45.379252 ] } },
{ "type": "Feature", "properties": { "Id": "860", "Name": "Henri-Labonne - Le Paillard", "Type": "Cluster", "SAMPLE_1": 16384, "SAMPLE_2": 32113, "SAMPLE_3": 9175, "Category": 4, "NOM": "Ville de Sherbrooke" }, "geometry": { "type": "Point", "coordinates": [ -71.994294, 45.370128 ] } },
{ "type": "Feature", "properties": { "Id": "877", "Name": "Henri-Labonne - boul. Bourque", "Type": "Cluster", "SAMPLE_1": 28836, "SAMPLE_2": 41943, "SAMPLE_3": 16384, "Category": 2, "NOM": "Ville de Sherbrooke" }, "geometry": { "type": "Point", "coordinates": [ -71.994854, 45.368168 ] } },
{ "type": "Feature", "properties": { "Id": "965", "Name": "Émery-Fontaine - Saint-Roch Sud-St-Roch - Émery-Fontaine", "Type": "Cluster", "SAMPLE_1": 16384, "SAMPLE_2": 32113, "SAMPLE_3": 9175, "Category": 4, "NOM": "Ville de Sherbrooke" }, "geometry": { "type": "Point", "coordinates": [ -71.9912475, 45.348746 ] } },
{ "type": "Feature", "properties": { "Id": "1716", "Name": "ch. St-Roch Sud - Gilles-Coutu-St-Roch S ", "Type": "Cluster", "SAMPLE_1": 16384, "SAMPLE_2": 32113, "SAMPLE_3": 9175, "Category": 4, "NOM": "Ville de Sherbrooke" }, "geometry": { "type": "Point", "coordinates": [ -71.97951, 45.340781 ] } },
{ "type": "Feature", "properties": { "Id": "1715", "Name": "ch. St-Roch Sud - ch. Blanchette-Saint-Roch Sud - Blanchette", "Type": "Cluster", "SAMPLE_1": 16384, "SAMPLE_2": 32113, "SAMPLE_3": 9175, "Category": 4, "NOM": "Ville de Sherbrooke" }, "geometry": { "type": "Point", "coordinates": [ -71.97918, 45.334647 ] } },
{ "type": "Feature", "properties": { "Id": "1714", "Name": "ch. Sainte-Catherine - De la Randonnée", "Type": "Cluster", "SAMPLE_1": 12452, "SAMPLE_2": 28180, "SAMPLE_3": 7209, "Category": 4, "NOM": "Ville de Sherbrooke" }, "geometry": { "type": "Point", "coordinates": [ -71.983742, 45.328632 ] } },
{ "type": "Feature", "properties": { "Id": "1428", "Name": "de Sainte-Catherine - de Lotbinière", "Type": "Cluster", "SAMPLE_1": 8520, "SAMPLE_2": 24904, "SAMPLE_3": 4588, "Category": 5, "NOM": "Ville de Sherbrooke" }, "geometry": { "type": "Point", "coordinates": [ -71.989442, 45.319013 ] } },
{ "type": "Feature", "properties": { "Id": "1713", "Name": "De Lotbinière - De la Sablière", "Type": "Cluster", "SAMPLE_1": 3932, "SAMPLE_2": 21627, "SAMPLE_3": 2621, "Category": 5, "NOM": "Ville de Sherbrooke" }, "geometry": { "type": "Point", "coordinates": [ -71.984439, 45.318803 ] } },
{ "type": "Feature", "properties": { "Id": "1188", "Name": "de Lotbinière - chemin de North Hatley", "Type": "Cluster", "SAMPLE_1": 0, "SAMPLE_2": 17695, "SAMPLE_3": 0, "Category": 5, "NOM": "Ville de Sherbrooke" }, "geometry": { "type": "Point", "coordinates": [ -71.97239, 45.318576 ] } },
{ "type": "Feature", "properties": { "Id": "1712", "Name": "ch. de North-Hatley - ch. McFarland", "Type": "Cluster", "SAMPLE_1": 0, "SAMPLE_2": 17695, "SAMPLE_3": 0, "Category": 5, "NOM": "Ville de Sherbrooke" }, "geometry": { "type": "Point", "coordinates": [ -71.968249, 45.322393 ] } },
{ "type": "Feature", "properties": { "Id": "1445", "Name": "Saint-Roch Sud - de North Hatley", "Type": "Cluster", "SAMPLE_1": 16384, "SAMPLE_2": 32113, "SAMPLE_3": 9175, "Category": 4, "NOM": "Ville de Sherbrooke" }, "geometry": { "type": "Point", "coordinates": [ -71.963657, 45.329243 ] } },
{ "type": "Feature", "properties": { "Id": "1427", "Name": "St-Roch S - Sainte-Catherine-de Sainte-Catherine - Saint-Rock Sud", "Type": "Cluster", "SAMPLE_1": 16384, "SAMPLE_2": 32113, "SAMPLE_3": 9175, "Category": 4, "NOM": "Ville de Sherbrooke" }, "geometry": { "type": "Point", "coordinates": [ -71.978416, 45.3330325 ] } },
{ "type": "Feature", "properties": { "Id": "820", "Name": "de Saint-Élie - Saint-Roch Nord", "Type": "Cluster", "SAMPLE_1": 12452, "SAMPLE_2": 28180, "SAMPLE_3": 7209, "Category": 4, "NOM": "Ville de Sherbrooke" }, "geometry": { "type": "Point", "coordinates": [ -72.0403985, 45.3954955 ] } },
{ "type": "Feature", "properties": { "Id": "4101", "Name": "Caleb - ch. de St-Élie", "Type": "Cluster", "SAMPLE_1": 8520, "SAMPLE_2": 24904, "SAMPLE_3": 4588, "Category": 5, "NOM": "Ville de Sherbrooke" }, "geometry": { "type": "Point", "coordinates": [ -72.077973, 45.383456 ] } },
{ "type": "Feature", "properties": { "Id": "4102", "Name": "182  Caleb", "Type": "Cluster", "SAMPLE_1": 0, "SAMPLE_2": 17695, "SAMPLE_3": 0, "Category": 5, "NOM": "Ville de Sherbrooke" }, "geometry": { "type": "Point", "coordinates": [ -72.078359, 45.387518 ] } },
{ "type": "Feature", "properties": { "Id": "4103", "Name": "326  Caleb", "Type": "Cluster", "SAMPLE_1": 3932, "SAMPLE_2": 21627, "SAMPLE_3": 2621, "Category": 5, "NOM": "Ville de Sherbrooke" }, "geometry": { "type": "Point", "coordinates": [ -72.078413, 45.393606 ] } },
{ "type": "Feature", "properties": { "Id": "4104", "Name": "405  Hémond", "Type": "Cluster", "SAMPLE_1": 8520, "SAMPLE_2": 24904, "SAMPLE_3": 4588, "Category": 5, "NOM": "Ville de Sherbrooke" }, "geometry": { "type": "Point", "coordinates": [ -72.080441, 45.398932 ] } },
{ "type": "Feature", "properties": { "Id": "4105", "Name": "Léon-Marceau - Jean-Marc Leclerc", "Type": "Cluster", "SAMPLE_1": 3932, "SAMPLE_2": 21627, "SAMPLE_3": 2621, "Category": 5, "NOM": "Ville de Sherbrooke" }, "geometry": { "type": "Point", "coordinates": [ -72.082061, 45.39454 ] } },
{ "type": "Feature", "properties": { "Id": "4106", "Name": "167  Jean-Marc Leclerc", "Type": "Cluster", "SAMPLE_1": 0, "SAMPLE_2": 17695, "SAMPLE_3": 0, "Category": 5, "NOM": "Ville de Sherbrooke" }, "geometry": { "type": "Point", "coordinates": [ -72.082436, 45.390713 ] } },
{ "type": "Feature", "properties": { "Id": "4107", "Name": "Jean-Marc Leclerc - Labrecque", "Type": "Cluster", "SAMPLE_1": 0, "SAMPLE_2": 17695, "SAMPLE_3": 0, "Category": 5, "NOM": "Ville de Sherbrooke" }, "geometry": { "type": "Point", "coordinates": [ -72.082565, 45.386214 ] } },
{ "type": "Feature", "properties": { "Id": "4108", "Name": "Labrecque - Hémond", "Type": "Cluster", "SAMPLE_1": 8520, "SAMPLE_2": 24904, "SAMPLE_3": 4588, "Category": 5, "NOM": "Ville de Sherbrooke" }, "geometry": { "type": "Point", "coordinates": [ -72.080569, 45.385875 ] } },
{ "type": "Feature", "properties": { "Id": "4109", "Name": "Hémond - ch. de St-Élie", "Type": "Cluster", "SAMPLE_1": 0, "SAMPLE_2": 17695, "SAMPLE_3": 0, "Category": 5, "NOM": "Ville de Sherbrooke" }, "geometry": { "type": "Point", "coordinates": [ -72.080086, 45.38256 ] } },
{ "type": "Feature", "properties": { "Id": "4001", "Name": "St-Roch N. - God.-Gilbert", "Type": "Cluster", "SAMPLE_1": 0, "SAMPLE_2": 17695, "SAMPLE_3": 0, "Category": 5, "NOM": "Ville de Sherbrooke" }, "geometry": { "type": "Point", "coordinates": [ -72.040561, 45.386003 ] } },
{ "type": "Feature", "properties": { "Id": "4002", "Name": "Lefebvre - des Sapins", "Type": "Cluster", "SAMPLE_1": 0, "SAMPLE_2": 17695, "SAMPLE_3": 0, "Category": 5, "NOM": "Ville de Sherbrooke" }, "geometry": { "type": "Point", "coordinates": [ -72.042074, 45.378739 ] } },
{ "type": "Feature", "properties": { "Id": "4003", "Name": "Lefebvre - Laliberté", "Type": "Cluster", "SAMPLE_1": 3932, "SAMPLE_2": 21627, "SAMPLE_3": 2621, "Category": 5, "NOM": "Ville de Sherbrooke" }, "geometry": { "type": "Point", "coordinates": [ -72.048469, 45.378648 ] } },
{ "type": "Feature", "properties": { "Id": "4004", "Name": "Laliberté - de l'Alcôve", "Type": "Cluster", "SAMPLE_1": 0, "SAMPLE_2": 17695, "SAMPLE_3": 0, "Category": 5, "NOM": "Ville de Sherbrooke" }, "geometry": { "type": "Point", "coordinates": [ -72.050142, 45.377021 ] } },
{ "type": "Feature", "properties": { "Id": "4005", "Name": "Iris - Anémones", "Type": "Cluster", "SAMPLE_1": 0, "SAMPLE_2": 17695, "SAMPLE_3": 0, "Category": 5, "NOM": "Ville de Sherbrooke" }, "geometry": { "type": "Point", "coordinates": [ -72.052031, 45.374187 ] } },
{ "type": "Feature", "properties": { "Id": "4006", "Name": "Hibiscus - Pâquerettes", "Type": "Cluster", "SAMPLE_1": 3932, "SAMPLE_2": 21627, "SAMPLE_3": 2621, "Category": 5, "NOM": "Ville de Sherbrooke" }, "geometry": { "type": "Point", "coordinates": [ -72.058682, 45.372981 ] } },
{ "type": "Feature", "properties": { "Id": "4007", "Name": "Orchidées - Bégonias", "Type": "Cluster", "SAMPLE_1": 0, "SAMPLE_2": 17695, "SAMPLE_3": 0, "Category": 5, "NOM": "Ville de Sherbrooke" }, "geometry": { "type": "Point", "coordinates": [ -72.056665, 45.369936 ] } },
{ "type": "Feature", "properties": { "Id": "4008", "Name": "Anémones - Tournesols", "Type": "Cluster", "SAMPLE_1": 3932, "SAMPLE_2": 21627, "SAMPLE_3": 2621, "Category": 5, "NOM": "Ville de Sherbrooke" }, "geometry": { "type": "Point", "coordinates": [ -72.04967, 45.371413 ] } },
{ "type": "Feature", "properties": { "Id": "4009", "Name": "Laliberté - Asters", "Type": "Cluster", "SAMPLE_1": 0, "SAMPLE_2": 17695, "SAMPLE_3": 0, "Category": 5, "NOM": "Ville de Sherbrooke" }, "geometry": { "type": "Point", "coordinates": [ -72.049541, 45.37482 ] } },
{ "type": "Feature", "properties": { "Id": "4010", "Name": "Laliberté - Pimbina", "Type": "Cluster", "SAMPLE_1": 0, "SAMPLE_2": 17695, "SAMPLE_3": 0, "Category": 5, "NOM": "Ville de Sherbrooke" }, "geometry": { "type": "Point", "coordinates": [ -72.049477, 45.380668 ] } },
{ "type": "Feature", "properties": { "Id": "1415", "Name": "Philippe-Beaulieu (no.6541)", "Type": "Cluster", "SAMPLE_1": 3932, "SAMPLE_2": 21627, "SAMPLE_3": 2621, "Category": 5, "NOM": "Ville de Sherbrooke" }, "geometry": { "type": "Point", "coordinates": [ -71.992099, 45.349887 ] } },
{ "type": "Feature", "properties": { "Id": "1414", "Name": "Philippe-Beaulieu - Saint-Roch Sud-St-Roch - Émery-Fontaine", "Type": "Cluster", "SAMPLE_1": 12452, "SAMPLE_2": 28180, "SAMPLE_3": 7209, "Category": 4, "NOM": "Ville de Sherbrooke" }, "geometry": { "type": "Point", "coordinates": [ -71.992781, 45.348615 ] } },
{ "type": "Feature", "properties": { "Id": "962", "Name": "boul. de l'Université- Saint-Roch Sud- Saint-Rock Sud", "Type": "Cluster", "SAMPLE_1": 16384, "SAMPLE_2": 32113, "SAMPLE_3": 9175, "Category": 4, "NOM": "Ville de Sherbrooke" }, "geometry": { "type": "Point", "coordinates": [ -71.983657, 45.3451515 ] } },
{ "type": "Feature", "properties": { "Id": "961", "Name": "boul. de l'Université - Jeanson", "Type": "Cluster", "SAMPLE_1": 28836, "SAMPLE_2": 41943, "SAMPLE_3": 16384, "Category": 2, "NOM": "Ville de Sherbrooke" }, "geometry": { "type": "Point", "coordinates": [ -71.9793505, 45.353206 ] } },
{ "type": "Feature", "properties": { "Id": "1239", "Name": "boul. de l'Université - Nick", "Type": "Cluster", "SAMPLE_1": 37356, "SAMPLE_2": 49152, "SAMPLE_3": 20972, "Category": 2, "NOM": "Ville de Sherbrooke" }, "geometry": { "type": "Point", "coordinates": [ -71.9767515, 45.3541665 ] } },
{ "type": "Feature", "properties": { "Id": "1440", "Name": "boul. de l'Université - Labbé", "Type": "Cluster", "SAMPLE_1": 8520, "SAMPLE_2": 24904, "SAMPLE_3": 4588, "Category": 5, "NOM": "Ville de Sherbrooke" }, "geometry": { "type": "Point", "coordinates": [ -71.970687, 45.354603 ] } },
{ "type": "Feature", "properties": { "Id": "960", "Name": "boul. de l'Université - Laplante", "Type": "Cluster", "SAMPLE_1": 32768, "SAMPLE_2": 45875, "SAMPLE_3": 18350, "Category": 2, "NOM": "Ville de Sherbrooke" }, "geometry": { "type": "Point", "coordinates": [ -71.9658125, 45.3579965 ] } },
{ "type": "Feature", "properties": { "Id": "1264", "Name": "boul. de l'Université - Albéric-Dussault", "Type": "Cluster", "SAMPLE_1": 49152, "SAMPLE_2": 49152, "SAMPLE_3": 49152, "Category": 1, "NOM": "Ville de Sherbrooke" }, "geometry": { "type": "Point", "coordinates": [ -71.9639445, 45.3600625 ] } },
{ "type": "Feature", "properties": { "Id": "956", "Name": "boul. de l'Université (no.4076)", "Type": "Cluster", "SAMPLE_1": 16384, "SAMPLE_2": 32113, "SAMPLE_3": 9175, "Category": 4, "NOM": "Ville de Sherbrooke" }, "geometry": { "type": "Point", "coordinates": [ -71.964116, 45.361838 ] } },
{ "type": "Feature", "properties": { "Id": "957", "Name": "Parc Galt", "Type": "Cluster", "SAMPLE_1": 20316, "SAMPLE_2": 35389, "SAMPLE_3": 11796, "Category": 3, "NOM": "Ville de Sherbrooke" }, "geometry": { "type": "Point", "coordinates": [ -71.962075, 45.3643985 ] } },
{ "type": "Feature", "properties": { "Id": "1267", "Name": "boul. de l'Université - de l'Indiana", "Type": "Cluster", "SAMPLE_1": 16384, "SAMPLE_2": 32113, "SAMPLE_3": 9175, "Category": 4, "NOM": "Ville de Sherbrooke" }, "geometry": { "type": "Point", "coordinates": [ -71.9585845, 45.3679385 ] } },
{ "type": "Feature", "properties": { "Id": "1268", "Name": "boul. de l'Université - Fernand-Bachand", "Type": "Cluster", "SAMPLE_1": 12452, "SAMPLE_2": 28180, "SAMPLE_3": 7209, "Category": 4, "NOM": "Ville de Sherbrooke" }, "geometry": { "type": "Point", "coordinates": [ -71.957683, 45.369886 ] } },
{ "type": "Feature", "properties": { "Id": "1702", "Name": "Univ.-I.-Lefebvre-boul. de l'Université - Papineau-Couture", "Type": "Cluster", "SAMPLE_1": 16384, "SAMPLE_2": 32113, "SAMPLE_3": 9175, "Category": 4, "NOM": "Ville de Sherbrooke" }, "geometry": { "type": "Point", "coordinates": [ -71.9558895, 45.3728415 ] } },
{ "type": "Feature", "properties": { "Id": "1315", "Name": "boul. de l'Université - Galt Ouest", "Type": "Cluster", "SAMPLE_1": 20316, "SAMPLE_2": 35389, "SAMPLE_3": 11796, "Category": 3, "NOM": "Ville de Sherbrooke" }, "geometry": { "type": "Point", "coordinates": [ -71.953843, 45.374216 ] } },
{ "type": "Feature", "properties": { "Id": "2420", "Name": "boul. de l'Université - A-410", "Type": "Cluster", "SAMPLE_1": 8520, "SAMPLE_2": 24904, "SAMPLE_3": 4588, "Category": 5, "NOM": "Ville de Sherbrooke" }, "geometry": { "type": "Point", "coordinates": [ -71.950337, 45.376604 ] } },
{ "type": "Feature", "properties": { "Id": "1438", "Name": "boul. de l'Université (no.4137)", "Type": "Cluster", "SAMPLE_1": 3932, "SAMPLE_2": 21627, "SAMPLE_3": 2621, "Category": 5, "NOM": "Ville de Sherbrooke" }, "geometry": { "type": "Point", "coordinates": [ -71.963714, 45.363026 ] } },
{ "type": "Feature", "properties": { "Id": "2454", "Name": "Saint-Roch Sud - Rodolphe-Bonneau-Place Dussault-Rodolphe-Bonneau - Saint-Roch Sud", "Type": "Cluster", "SAMPLE_1": 8520, "SAMPLE_2": 24904, "SAMPLE_3": 4588, "Category": 5, "NOM": "Ville de Sherbrooke" }, "geometry": { "type": "Point", "coordinates": [ -71.9886567, 45.3484183 ] } },
{ "type": "Feature", "properties": { "Id": "2322", "Name": "Papineau - des Coquelicots", "Type": "Cluster", "SAMPLE_1": 20316, "SAMPLE_2": 35389, "SAMPLE_3": 11796, "Category": 3, "NOM": "Ville de Sherbrooke" }, "geometry": { "type": "Point", "coordinates": [ -71.859312, 45.415663 ] } },
{ "type": "Feature", "properties": { "Id": "1560", "Name": "Parc des Jardins-Fleuris", "Type": "Cluster", "SAMPLE_1": 0, "SAMPLE_2": 17695, "SAMPLE_3": 0, "Category": 5, "NOM": "Ville de Sherbrooke" }, "geometry": { "type": "Point", "coordinates": [ -71.8620065, 45.4153045 ] } },
{ "type": "Feature", "properties": { "Id": "441", "Name": "Galeries Quatre-Saisons", "Type": "Cluster", "SAMPLE_1": 24904, "SAMPLE_2": 38666, "SAMPLE_3": 13763, "Category": 3, "NOM": "Ville de Sherbrooke" }, "geometry": { "type": "Point", "coordinates": [ -71.869702, 45.4209605 ] } },
{ "type": "Feature", "properties": { "Id": "2273", "Name": "13e av. Nord - du 24-Juin", "Type": "Cluster", "SAMPLE_1": 41943, "SAMPLE_2": 52429, "SAMPLE_3": 22938, "Category": 1, "NOM": "Ville de Sherbrooke" }, "geometry": { "type": "Point", "coordinates": [ -71.871452, 45.422576 ] } },
{ "type": "Feature", "properties": { "Id": "2252", "Name": "13e av. Nord - du 24-Juin", "Type": "Cluster", "SAMPLE_1": 45220, "SAMPLE_2": 49807, "SAMPLE_3": 24904, "Category": 1, "NOM": "Ville de Sherbrooke" }, "geometry": { "type": "Point", "coordinates": [ -71.8727045, 45.422473 ] } },
{ "type": "Feature", "properties": { "Id": "2035", "Name": "des Quatre-Saisons - des Blés", "Type": "Cluster", "SAMPLE_1": 20316, "SAMPLE_2": 35389, "SAMPLE_3": 11796, "Category": 3, "NOM": "Ville de Sherbrooke" }, "geometry": { "type": "Point", "coordinates": [ -71.8663455, 45.420558 ] } },
{ "type": "Feature", "properties": { "Id": "1147", "Name": "des Lys - des Quatre-Saisons", "Type": "Cluster", "SAMPLE_1": 20316, "SAMPLE_2": 35389, "SAMPLE_3": 11796, "Category": 3, "NOM": "Ville de Sherbrooke" }, "geometry": { "type": "Point", "coordinates": [ -71.8639673, 45.421384 ] } },
{ "type": "Feature", "properties": { "Id": "2448", "Name": "des Capucines - des Quatre-Saisons", "Type": "Cluster", "SAMPLE_1": 3932, "SAMPLE_2": 21627, "SAMPLE_3": 2621, "Category": 5, "NOM": "Ville de Sherbrooke" }, "geometry": { "type": "Point", "coordinates": [ -71.861591, 45.421536 ] } },
{ "type": "Feature", "properties": { "Id": "2449", "Name": "des Capucines (no. 927)", "Type": "Cluster", "SAMPLE_1": 8520, "SAMPLE_2": 24904, "SAMPLE_3": 4588, "Category": 5, "NOM": "Ville de Sherbrooke" }, "geometry": { "type": "Point", "coordinates": [ -71.86265, 45.41936 ] } },
{ "type": "Feature", "properties": { "Id": "2450", "Name": "des Capucines - des Fleurs-de-mai", "Type": "Cluster", "SAMPLE_1": 20316, "SAMPLE_2": 35389, "SAMPLE_3": 11796, "Category": 3, "NOM": "Ville de Sherbrooke" }, "geometry": { "type": "Point", "coordinates": [ -71.85918, 45.417505 ] } },
{ "type": "Feature", "properties": { "Id": "435", "Name": "du Baron - des Pélerins- des Pèlerins", "Type": "Cluster", "SAMPLE_1": 12452, "SAMPLE_2": 28180, "SAMPLE_3": 7209, "Category": 4, "NOM": "Ville de Sherbrooke" }, "geometry": { "type": "Point", "coordinates": [ -71.8873755, 45.429434 ] } },
{ "type": "Feature", "properties": { "Id": "1034", "Name": "des Pélerins - du Sanctuaire", "Type": "Cluster", "SAMPLE_1": 20316, "SAMPLE_2": 35389, "SAMPLE_3": 11796, "Category": 3, "NOM": "Ville de Sherbrooke" }, "geometry": { "type": "Point", "coordinates": [ -71.887614, 45.444122 ] } },
{ "type": "Feature", "properties": { "Id": "1035", "Name": "Champêtre - du Sanctuaire", "Type": "Cluster", "SAMPLE_1": 20316, "SAMPLE_2": 35389, "SAMPLE_3": 11796, "Category": 3, "NOM": "Ville de Sherbrooke" }, "geometry": { "type": "Point", "coordinates": [ -71.900518, 45.440333 ] } },
{ "type": "Feature", "properties": { "Id": "1307", "Name": "des Paysans (no.1006)", "Type": "Cluster", "SAMPLE_1": 20316, "SAMPLE_2": 35389, "SAMPLE_3": 11796, "Category": 3, "NOM": "Ville de Sherbrooke" }, "geometry": { "type": "Point", "coordinates": [ -71.868234, 45.422041 ] } },
{ "type": "Feature", "properties": { "Id": "1400", "Name": "Émile-Cambron (no.1362)", "Type": "Cluster", "SAMPLE_1": 3932, "SAMPLE_2": 21627, "SAMPLE_3": 2621, "Category": 5, "NOM": "Ville de Sherbrooke" }, "geometry": { "type": "Point", "coordinates": [ -71.868069, 45.425998 ] } },
{ "type": "Feature", "properties": { "Id": "1417", "Name": "Véronique (no.1005)", "Type": "Cluster", "SAMPLE_1": 12452, "SAMPLE_2": 28180, "SAMPLE_3": 7209, "Category": 4, "NOM": "Ville de Sherbrooke" }, "geometry": { "type": "Point", "coordinates": [ -71.866633, 45.427458 ] } },
{ "type": "Feature", "properties": { "Id": "2298", "Name": "Brûlotte - Nathalie", "Type": "Cluster", "SAMPLE_1": 28836, "SAMPLE_2": 41943, "SAMPLE_3": 16384, "Category": 2, "NOM": "Ville de Sherbrooke" }, "geometry": { "type": "Point", "coordinates": [ -71.8644793, 45.42838 ] } },
{ "type": "Feature", "properties": { "Id": "1027", "Name": "Brûlotte- Ernest-Therriault", "Type": "Cluster", "SAMPLE_1": 24904, "SAMPLE_2": 38666, "SAMPLE_3": 13763, "Category": 3, "NOM": "Ville de Sherbrooke" }, "geometry": { "type": "Point", "coordinates": [ -71.8597325, 45.4291645 ] } },
{ "type": "Feature", "properties": { "Id": "1801", "Name": "Brûlotte - du Vice-Roy- du Vice-Roi", "Type": "Cluster", "SAMPLE_1": 16384, "SAMPLE_2": 32113, "SAMPLE_3": 9175, "Category": 4, "NOM": "Ville de Sherbrooke" }, "geometry": { "type": "Point", "coordinates": [ -71.8576633, 45.4309687 ] } },
{ "type": "Feature", "properties": { "Id": "1038", "Name": "des Cimes - Champêtre", "Type": "Cluster", "SAMPLE_1": 20316, "SAMPLE_2": 35389, "SAMPLE_3": 11796, "Category": 3, "NOM": "Ville de Sherbrooke" }, "geometry": { "type": "Point", "coordinates": [ -71.899283, 45.436702 ] } },
{ "type": "Feature", "properties": { "Id": "2413", "Name": "des Cimes (no.1901)", "Type": "Cluster", "SAMPLE_1": 16384, "SAMPLE_2": 32113, "SAMPLE_3": 9175, "Category": 4, "NOM": "Ville de Sherbrooke" }, "geometry": { "type": "Point", "coordinates": [ -71.897343, 45.432945 ] } },
{ "type": "Feature", "properties": { "Id": "1037", "Name": "Lajeunesse - Des Pélerins", "Type": "Cluster", "SAMPLE_1": 12452, "SAMPLE_2": 28180, "SAMPLE_3": 7209, "Category": 4, "NOM": "Ville de Sherbrooke" }, "geometry": { "type": "Point", "coordinates": [ -71.887409, 45.431743 ] } },
{ "type": "Feature", "properties": { "Id": "1502", "Name": "des Pèlerins - Louise-des Pélerins ", "Type": "Cluster", "SAMPLE_1": 16384, "SAMPLE_2": 32113, "SAMPLE_3": 9175, "Category": 4, "NOM": "Ville de Sherbrooke" }, "geometry": { "type": "Point", "coordinates": [ -71.887085, 45.427325 ] } },
{ "type": "Feature", "properties": { "Id": "437", "Name": "du 24-Juin - des Pèlerins- des Pélerins", "Type": "Cluster", "SAMPLE_1": 24904, "SAMPLE_2": 38666, "SAMPLE_3": 13763, "Category": 3, "NOM": "Ville de Sherbrooke" }, "geometry": { "type": "Point", "coordinates": [ -71.8868235, 45.423705 ] } },
{ "type": "Feature", "properties": { "Id": "1327", "Name": "du Souvenir - du 24-Juin", "Type": "Cluster", "SAMPLE_1": 16384, "SAMPLE_2": 32113, "SAMPLE_3": 9175, "Category": 4, "NOM": "Ville de Sherbrooke" }, "geometry": { "type": "Point", "coordinates": [ -71.8822627, 45.4219993 ] } },
{ "type": "Feature", "properties": { "Id": "799", "Name": "Centre de formation professionnelle 24-Juin", "Type": "Cluster", "SAMPLE_1": 24904, "SAMPLE_2": 38666, "SAMPLE_3": 13763, "Category": 3, "NOM": "Ville de Sherbrooke" }, "geometry": { "type": "Point", "coordinates": [ -71.878199, 45.4220325 ] } },
{ "type": "Feature", "properties": { "Id": "242", "Name": "12e av. Nord - du 24-Juin", "Type": "Cluster", "SAMPLE_1": 37356, "SAMPLE_2": 49152, "SAMPLE_3": 20972, "Category": 2, "NOM": "Ville de Sherbrooke" }, "geometry": { "type": "Point", "coordinates": [ -71.8741735, 45.4221275 ] } },
{ "type": "Feature", "properties": { "Id": "1403", "Name": "des Roses - Véronique", "Type": "Cluster", "SAMPLE_1": 16384, "SAMPLE_2": 32113, "SAMPLE_3": 9175, "Category": 4, "NOM": "Ville de Sherbrooke" }, "geometry": { "type": "Point", "coordinates": [ -71.861843, 45.427729 ] } },
{ "type": "Feature", "properties": { "Id": "1402", "Name": "Després (no.1225)", "Type": "Cluster", "SAMPLE_1": 20316, "SAMPLE_2": 35389, "SAMPLE_3": 11796, "Category": 3, "NOM": "Ville de Sherbrooke" }, "geometry": { "type": "Point", "coordinates": [ -71.864328, 45.426794 ] } },
{ "type": "Feature", "properties": { "Id": "1030", "Name": "Parc Maillé", "Type": "Cluster", "SAMPLE_1": 8520, "SAMPLE_2": 24904, "SAMPLE_3": 4588, "Category": 5, "NOM": "Ville de Sherbrooke" }, "geometry": { "type": "Point", "coordinates": [ -71.864887, 45.424978 ] } },
{ "type": "Feature", "properties": { "Id": "1308", "Name": "des Lys - des Tulipes", "Type": "Cluster", "SAMPLE_1": 3932, "SAMPLE_2": 21627, "SAMPLE_3": 2621, "Category": 5, "NOM": "Ville de Sherbrooke" }, "geometry": { "type": "Point", "coordinates": [ -71.864848, 45.42329 ] } },
{ "type": "Feature", "properties": { "Id": "2260", "Name": "boul. Industriel - boul. de Portland- sortie A-410", "Type": "Cluster", "SAMPLE_1": 16384, "SAMPLE_2": 32113, "SAMPLE_3": 9175, "Category": 4, "NOM": "Ville de Sherbrooke" }, "geometry": { "type": "Point", "coordinates": [ -71.9636045, 45.404646 ] } },
{ "type": "Feature", "properties": { "Id": "1676", "Name": "Boul. Industriel - Garlock-boul. Industriel ", "Type": "Cluster", "SAMPLE_1": 3932, "SAMPLE_2": 21627, "SAMPLE_3": 2621, "Category": 5, "NOM": "Ville de Sherbrooke" }, "geometry": { "type": "Point", "coordinates": [ -71.963868, 45.4075295 ] } },
{ "type": "Feature", "properties": { "Id": "1677", "Name": "Boul. Industriel - Pépin-Pépin - boul. Industriel", "Type": "Cluster", "SAMPLE_1": 8520, "SAMPLE_2": 24904, "SAMPLE_3": 4588, "Category": 5, "NOM": "Ville de Sherbrooke" }, "geometry": { "type": "Point", "coordinates": [ -71.966193, 45.4128265 ] } },
{ "type": "Feature", "properties": { "Id": "2257", "Name": "Pépin - Garlock", "Type": "Cluster", "SAMPLE_1": 20316, "SAMPLE_2": 35389, "SAMPLE_3": 11796, "Category": 3, "NOM": "Ville de Sherbrooke" }, "geometry": { "type": "Point", "coordinates": [ -71.969022, 45.4067755 ] } },
{ "type": "Feature", "properties": { "Id": "1732", "Name": "Joseph-Louis-Mathieu - Robert-Boyd", "Type": "Cluster", "SAMPLE_1": 28836, "SAMPLE_2": 41943, "SAMPLE_3": 16384, "Category": 2, "NOM": "Ville de Sherbrooke" }, "geometry": { "type": "Point", "coordinates": [ -71.986885, 45.405516 ] } },
{ "type": "Feature", "properties": { "Id": "1734", "Name": "Robert-Boyd (no. 5255)", "Type": "Cluster", "SAMPLE_1": 12452, "SAMPLE_2": 28180, "SAMPLE_3": 7209, "Category": 4, "NOM": "Ville de Sherbrooke" }, "geometry": { "type": "Point", "coordinates": [ -71.992196, 45.4010715 ] } },
{ "type": "Feature", "properties": { "Id": "1736", "Name": "Robert-Boyd (no. 4990)", "Type": "Cluster", "SAMPLE_1": 32768, "SAMPLE_2": 45875, "SAMPLE_3": 18350, "Category": 2, "NOM": "Ville de Sherbrooke" }, "geometry": { "type": "Point", "coordinates": [ -71.991182, 45.398141 ] } },
{ "type": "Feature", "properties": { "Id": "1739", "Name": "Robert-Boyd (no. 4870)-Robert-Boyd (no. 4845)", "Type": "Cluster", "SAMPLE_1": 20316, "SAMPLE_2": 35389, "SAMPLE_3": 11796, "Category": 3, "NOM": "Ville de Sherbrooke" }, "geometry": { "type": "Point", "coordinates": [ -71.98733, 45.39819 ] } },
{ "type": "Feature", "properties": { "Id": "1733", "Name": "Joseph-Louis-Mathieu - Robert-Boyd", "Type": "Cluster", "SAMPLE_1": 32768, "SAMPLE_2": 45875, "SAMPLE_3": 18350, "Category": 2, "NOM": "Ville de Sherbrooke" }, "geometry": { "type": "Point", "coordinates": [ -71.986327, 45.404891 ] } },
{ "type": "Feature", "properties": { "Id": "2256", "Name": "boul. de Portland - Pépin", "Type": "Cluster", "SAMPLE_1": 28836, "SAMPLE_2": 41943, "SAMPLE_3": 16384, "Category": 2, "NOM": "Ville de Sherbrooke" }, "geometry": { "type": "Point", "coordinates": [ -71.968281, 45.403603 ] } },
{ "type": "Feature", "properties": { "Id": "2445", "Name": "boul. Industriel (no. 3250)", "Type": "Cluster", "SAMPLE_1": 28836, "SAMPLE_2": 41943, "SAMPLE_3": 16384, "Category": 2, "NOM": "Ville de Sherbrooke" }, "geometry": { "type": "Point", "coordinates": [ -71.964463, 45.410609 ] } },
{ "type": "Feature", "properties": { "Id": "1317", "Name": "Val-du-Lac", "Type": "Cluster", "SAMPLE_1": 28836, "SAMPLE_2": 41943, "SAMPLE_3": 16384, "Category": 2, "NOM": "Ville de Sherbrooke" }, "geometry": { "type": "Point", "coordinates": [ -72.017392, 45.314276 ] } },
{ "type": "Feature", "properties": { "Id": "1189", "Name": "Blanchette - de la Pointe-Gervais", "Type": "Cluster", "SAMPLE_1": 3932, "SAMPLE_2": 21627, "SAMPLE_3": 2621, "Category": 5, "NOM": "Ville de Sherbrooke" }, "geometry": { "type": "Point", "coordinates": [ -72.015257, 45.320251 ] } },
{ "type": "Feature", "properties": { "Id": "986", "Name": "de la Trinité- chemin Blanchette", "Type": "Cluster", "SAMPLE_1": 8520, "SAMPLE_2": 24904, "SAMPLE_3": 4588, "Category": 5, "NOM": "Ville de Sherbrooke" }, "geometry": { "type": "Point", "coordinates": [ -72.018424, 45.334616 ] } },
{ "type": "Feature", "properties": { "Id": "1190", "Name": "Rodrigue - Blanchette", "Type": "Cluster", "SAMPLE_1": 3932, "SAMPLE_2": 21627, "SAMPLE_3": 2621, "Category": 5, "NOM": "Ville de Sherbrooke" }, "geometry": { "type": "Point", "coordinates": [ -71.999347, 45.334634 ] } },
{ "type": "Feature", "properties": { "Id": "2390", "Name": "Base de plein air André-Nadeau", "Type": "Cluster", "SAMPLE_1": 16384, "SAMPLE_2": 32113, "SAMPLE_3": 9175, "Category": 4, "NOM": "Ville de Sherbrooke" }, "geometry": { "type": "Point", "coordinates": [ -71.992942, 45.334389 ] } },
{ "type": "Feature", "properties": { "Id": "1424", "Name": "de Sainte-Catherine - du Roitelet", "Type": "Cluster", "SAMPLE_1": 16384, "SAMPLE_2": 32113, "SAMPLE_3": 9175, "Category": 4, "NOM": "Ville de Sherbrooke" }, "geometry": { "type": "Point", "coordinates": [ -71.973486, 45.3377415 ] } },
{ "type": "Feature", "properties": { "Id": "2453", "Name": "Sainte-Catherine - Felton- Labbé", "Type": "Cluster", "SAMPLE_1": 16384, "SAMPLE_2": 32113, "SAMPLE_3": 9175, "Category": 4, "NOM": "Ville de Sherbrooke" }, "geometry": { "type": "Point", "coordinates": [ -71.954783, 45.349218 ] } },
{ "type": "Feature", "properties": { "Id": "1433", "Name": "Colombe - Chemin de Sainte-Catherine", "Type": "Cluster", "SAMPLE_1": 0, "SAMPLE_2": 17695, "SAMPLE_3": 0, "Category": 5, "NOM": "Ville de Sherbrooke" }, "geometry": { "type": "Point", "coordinates": [ -71.951198, 45.350981 ] } },
{ "type": "Feature", "properties": { "Id": "1434", "Name": "de North Hatley - Felton", "Type": "Cluster", "SAMPLE_1": 8520, "SAMPLE_2": 24904, "SAMPLE_3": 4588, "Category": 5, "NOM": "Ville de Sherbrooke" }, "geometry": { "type": "Point", "coordinates": [ -71.945381, 45.35101 ] } },
{ "type": "Feature", "properties": { "Id": "1435_merged_855801", "Name": "de North Hatley - de Sainte-Catherine", "Type": "Cluster", "SAMPLE_1": 3932, "SAMPLE_2": 21627, "SAMPLE_3": 2621, "Category": 5, "NOM": "Ville de Sherbrooke" }, "geometry": { "type": "Point", "coordinates": [ -71.9436333, 45.3555727 ] } },
{ "type": "Feature", "properties": { "Id": "1436", "Name": "de Sainte-Catherine - Montante", "Type": "Cluster", "SAMPLE_1": 12452, "SAMPLE_2": 28180, "SAMPLE_3": 7209, "Category": 4, "NOM": "Ville de Sherbrooke" }, "geometry": { "type": "Point", "coordinates": [ -71.934626, 45.364291 ] } },
{ "type": "Feature", "properties": { "Id": "3002", "Name": "(Virtuel) Breton - de l'Ivoire", "Type": "Cluster", "SAMPLE_1": 12452, "SAMPLE_2": 28180, "SAMPLE_3": 7209, "Category": 4, "NOM": "Ville de Sherbrooke" }, "geometry": { "type": "Point", "coordinates": [ -71.941288, 45.365383 ] } },
{ "type": "Feature", "properties": { "Id": "1425", "Name": "de North Hatley - Felton", "Type": "Cluster", "SAMPLE_1": 8520, "SAMPLE_2": 24904, "SAMPLE_3": 4588, "Category": 5, "NOM": "Ville de Sherbrooke" }, "geometry": { "type": "Point", "coordinates": [ -71.945915, 45.350164 ] } },
{ "type": "Feature", "properties": { "Id": "1749", "Name": "ch. de Sainte-Catherine - de la Mine-d'Or", "Type": "Cluster", "SAMPLE_1": 8520, "SAMPLE_2": 24904, "SAMPLE_3": 4588, "Category": 5, "NOM": "Ville de Sherbrooke" }, "geometry": { "type": "Point", "coordinates": [ -71.984568, 45.327817 ] } },
{ "type": "Feature", "properties": { "Id": "2279", "Name": "de Sainte-Catherine (no.5267)", "Type": "Cluster", "SAMPLE_1": 12452, "SAMPLE_2": 28180, "SAMPLE_3": 7209, "Category": 4, "NOM": "Ville de Sherbrooke" }, "geometry": { "type": "Point", "coordinates": [ -71.987538, 45.322989 ] } },
{ "type": "Feature", "properties": { "Id": "6007", "Name": "Station du Cégep - Quai G", "Type": "Cluster", "SAMPLE_1": 12452, "SAMPLE_2": 28180, "SAMPLE_3": 7209, "Category": 4, "NOM": "Ville de Sherbrooke" }, "geometry": { "type": "Point", "coordinates": [ -71.88513, 45.41139 ] } },
{ "type": "Feature", "properties": { "Id": "2380", "Name": "Terrill - du Cégep", "Type": "Cluster", "SAMPLE_1": 24904, "SAMPLE_2": 38666, "SAMPLE_3": 13763, "Category": 3, "NOM": "Ville de Sherbrooke" }, "geometry": { "type": "Point", "coordinates": [ -71.8866175, 45.4123035 ] } },
{ "type": "Feature", "properties": { "Id": "504", "Name": "Kennedy Nord - Terrill", "Type": "Cluster", "SAMPLE_1": 20316, "SAMPLE_2": 35389, "SAMPLE_3": 11796, "Category": 3, "NOM": "Ville de Sherbrooke" }, "geometry": { "type": "Point", "coordinates": [ -71.890689, 45.4097635 ] } },
{ "type": "Feature", "properties": { "Id": "1458", "Name": "Saint-François Nord - Giet", "Type": "Cluster", "SAMPLE_1": 3932, "SAMPLE_2": 21627, "SAMPLE_3": 2621, "Category": 5, "NOM": "Ville de Sherbrooke" }, "geometry": { "type": "Point", "coordinates": [ -71.892855, 45.4103143 ] } },
{ "type": "Feature", "properties": { "Id": "917", "Name": "Parc du Mena'sen-Holmes - Goretti", "Type": "Cluster", "SAMPLE_1": 20316, "SAMPLE_2": 35389, "SAMPLE_3": 11796, "Category": 3, "NOM": "Ville de Sherbrooke" }, "geometry": { "type": "Point", "coordinates": [ -71.8953212, 45.411431 ] } },
{ "type": "Feature", "properties": { "Id": "2223", "Name": "Marais Réal-D-Carbonneau", "Type": "Cluster", "SAMPLE_1": 8520, "SAMPLE_2": 24904, "SAMPLE_3": 4588, "Category": 5, "NOM": "Ville de Sherbrooke" }, "geometry": { "type": "Point", "coordinates": [ -71.901118, 45.414792 ] } },
{ "type": "Feature", "properties": { "Id": "1787", "Name": "Saint-François Nord - Napoléon-Veilleux", "Type": "Cluster", "SAMPLE_1": 16384, "SAMPLE_2": 32113, "SAMPLE_3": 9175, "Category": 4, "NOM": "Ville de Sherbrooke" }, "geometry": { "type": "Point", "coordinates": [ -71.924068, 45.446102 ] } },
{ "type": "Feature", "properties": { "Id": "978", "Name": "de Savoie - Saint-François Nord", "Type": "Cluster", "SAMPLE_1": 16384, "SAMPLE_2": 32113, "SAMPLE_3": 9175, "Category": 4, "NOM": "Ville de Sherbrooke" }, "geometry": { "type": "Point", "coordinates": [ -71.927453, 45.448776 ] } },
{ "type": "Feature", "properties": { "Id": "987", "Name": "de Boulogne - Saint-François Nord", "Type": "Cluster", "SAMPLE_1": 16384, "SAMPLE_2": 32113, "SAMPLE_3": 9175, "Category": 4, "NOM": "Ville de Sherbrooke" }, "geometry": { "type": "Point", "coordinates": [ -71.928346, 45.450816 ] } },
{ "type": "Feature", "properties": { "Id": "988", "Name": "de Boulogne - de Lorraine", "Type": "Cluster", "SAMPLE_1": 16384, "SAMPLE_2": 32113, "SAMPLE_3": 9175, "Category": 4, "NOM": "Ville de Sherbrooke" }, "geometry": { "type": "Point", "coordinates": [ -71.926067, 45.451506 ] } },
{ "type": "Feature", "properties": { "Id": "979", "Name": "d'Artois - de Savoie", "Type": "Cluster", "SAMPLE_1": 20316, "SAMPLE_2": 35389, "SAMPLE_3": 11796, "Category": 3, "NOM": "Ville de Sherbrooke" }, "geometry": { "type": "Point", "coordinates": [ -71.924886, 45.449713 ] } },
{ "type": "Feature", "properties": { "Id": "918", "Name": "de Savoie - du Poitou", "Type": "Cluster", "SAMPLE_1": 16384, "SAMPLE_2": 32113, "SAMPLE_3": 9175, "Category": 4, "NOM": "Ville de Sherbrooke" }, "geometry": { "type": "Point", "coordinates": [ -71.92225, 45.450394 ] } },
{ "type": "Feature", "properties": { "Id": "919", "Name": "du Poitou - d'Alsace", "Type": "Cluster", "SAMPLE_1": 16384, "SAMPLE_2": 32113, "SAMPLE_3": 9175, "Category": 4, "NOM": "Ville de Sherbrooke" }, "geometry": { "type": "Point", "coordinates": [ -71.921261, 45.449014 ] } },
{ "type": "Feature", "properties": { "Id": "920", "Name": "Parc Valère-Patoine", "Type": "Cluster", "SAMPLE_1": 16384, "SAMPLE_2": 32113, "SAMPLE_3": 9175, "Category": 4, "NOM": "Ville de Sherbrooke" }, "geometry": { "type": "Point", "coordinates": [ -71.917842, 45.451516 ] } },
{ "type": "Feature", "properties": { "Id": "772", "Name": "de Savoie - de Boulogne", "Type": "Cluster", "SAMPLE_1": 8520, "SAMPLE_2": 24904, "SAMPLE_3": 4588, "Category": 5, "NOM": "Ville de Sherbrooke" }, "geometry": { "type": "Point", "coordinates": [ -71.921694, 45.452898 ] } },
{ "type": "Feature", "properties": { "Id": "773", "Name": "de Boulogne - de Champfleur", "Type": "Cluster", "SAMPLE_1": 12452, "SAMPLE_2": 28180, "SAMPLE_3": 7209, "Category": 4, "NOM": "Ville de Sherbrooke" }, "geometry": { "type": "Point", "coordinates": [ -71.919623, 45.45475 ] } },
{ "type": "Feature", "properties": { "Id": "921", "Name": "de Champfleur - Beaucours", "Type": "Cluster", "SAMPLE_1": 16384, "SAMPLE_2": 32113, "SAMPLE_3": 9175, "Category": 4, "NOM": "Ville de Sherbrooke" }, "geometry": { "type": "Point", "coordinates": [ -71.915464, 45.458145 ] } },
{ "type": "Feature", "properties": { "Id": "922", "Name": "de Champfleur - Côte de Beauvoir", "Type": "Cluster", "SAMPLE_1": 16384, "SAMPLE_2": 32113, "SAMPLE_3": 9175, "Category": 4, "NOM": "Ville de Sherbrooke" }, "geometry": { "type": "Point", "coordinates": [ -71.913985, 45.460525 ] } },
{ "type": "Feature", "properties": { "Id": "990", "Name": "Saint-François Nord (no.5892)", "Type": "Cluster", "SAMPLE_1": 20316, "SAMPLE_2": 35389, "SAMPLE_3": 11796, "Category": 3, "NOM": "Ville de Sherbrooke" }, "geometry": { "type": "Point", "coordinates": [ -71.917006, 45.460422 ] } },
{ "type": "Feature", "properties": { "Id": "512", "Name": "Saint-François Nord - Clémenceau", "Type": "Cluster", "SAMPLE_1": 24904, "SAMPLE_2": 38666, "SAMPLE_3": 13763, "Category": 3, "NOM": "Ville de Sherbrooke" }, "geometry": { "type": "Point", "coordinates": [ -71.890936, 45.408246 ] } },
{ "type": "Feature", "properties": { "Id": "793", "Name": "Cégep Salle Alfred-Des Rochers", "Type": "Cluster", "SAMPLE_1": 20316, "SAMPLE_2": 35389, "SAMPLE_3": 11796, "Category": 3, "NOM": "Ville de Sherbrooke" }, "geometry": { "type": "Point", "coordinates": [ -71.888138, 45.411081 ] } },
{ "type": "Feature", "properties": { "Id": "1641", "Name": "ch. Lemire - ch. Duplessis-Duplessis - Lemire", "Type": "Cluster", "SAMPLE_1": 24904, "SAMPLE_2": 38666, "SAMPLE_3": 13763, "Category": 3, "NOM": "Ville de Sherbrooke" }, "geometry": { "type": "Point", "coordinates": [ -71.8502933, 45.422214 ] } },
{ "type": "Feature", "properties": { "Id": "1582", "Name": "Duplessis - Centre Julien-Ducharme", "Type": "Cluster", "SAMPLE_1": 3932, "SAMPLE_2": 21627, "SAMPLE_3": 2621, "Category": 5, "NOM": "Ville de Sherbrooke" }, "geometry": { "type": "Point", "coordinates": [ -71.850207, 45.43044 ] } },
{ "type": "Feature", "properties": { "Id": "1664", "Name": "Duplessis - Bienvenue-Goddard - Duplessis", "Type": "Cluster", "SAMPLE_1": 20316, "SAMPLE_2": 35389, "SAMPLE_3": 11796, "Category": 3, "NOM": "Ville de Sherbrooke" }, "geometry": { "type": "Point", "coordinates": [ -71.8501115, 45.4478105 ] } },
{ "type": "Feature", "properties": { "Id": "635", "Name": "12e av. Nord - Duplessis", "Type": "Cluster", "SAMPLE_1": 24904, "SAMPLE_2": 38666, "SAMPLE_3": 13763, "Category": 3, "NOM": "Ville de Sherbrooke" }, "geometry": { "type": "Point", "coordinates": [ -71.861181, 45.449944 ] } },
{ "type": "Feature", "properties": { "Id": "1637", "Name": "Alfred-Champigny - Goddard", "Type": "Cluster", "SAMPLE_1": 8520, "SAMPLE_2": 24904, "SAMPLE_3": 4588, "Category": 5, "NOM": "Ville de Sherbrooke" }, "geometry": { "type": "Point", "coordinates": [ -71.825523, 45.446704 ] } },
{ "type": "Feature", "properties": { "Id": "1661", "Name": "Alfred-Champigny (no.2175)", "Type": "Cluster", "SAMPLE_1": 8520, "SAMPLE_2": 24904, "SAMPLE_3": 4588, "Category": 5, "NOM": "Ville de Sherbrooke" }, "geometry": { "type": "Point", "coordinates": [ -71.822004, 45.43618 ] } },
{ "type": "Feature", "properties": { "Id": "1658", "Name": "Alfred-Champigny - King Est", "Type": "Cluster", "SAMPLE_1": 0, "SAMPLE_2": 17695, "SAMPLE_3": 0, "Category": 5, "NOM": "Ville de Sherbrooke" }, "geometry": { "type": "Point", "coordinates": [ -71.821264, 45.431475 ] } },
{ "type": "Feature", "properties": { "Id": "1638", "Name": "Lemire - King Est-Ch. Lemire ", "Type": "Cluster", "SAMPLE_1": 8520, "SAMPLE_2": 24904, "SAMPLE_3": 4588, "Category": 5, "NOM": "Ville de Sherbrooke" }, "geometry": { "type": "Point", "coordinates": [ -71.82584, 45.426799 ] } },
{ "type": "Feature", "properties": { "Id": "1639", "Name": "ch. Lemire - ch.du Domaine", "Type": "Cluster", "SAMPLE_1": 32768, "SAMPLE_2": 45875, "SAMPLE_3": 18350, "Category": 2, "NOM": "Ville de Sherbrooke" }, "geometry": { "type": "Point", "coordinates": [ -71.83771, 45.426299 ] } },
{ "type": "Feature", "properties": { "Id": "600", "Name": "Place Fleurimont-Duplessis (entrée supermarché)", "Type": "Cluster", "SAMPLE_1": 45220, "SAMPLE_2": 49807, "SAMPLE_3": 24904, "Category": 1, "NOM": "Ville de Sherbrooke" }, "geometry": { "type": "Point", "coordinates": [ -71.8516875, 45.4109332 ] } },
{ "type": "Feature", "properties": { "Id": "1650", "Name": "ch. Duplessis (no. 389)", "Type": "Cluster", "SAMPLE_1": 16384, "SAMPLE_2": 32113, "SAMPLE_3": 9175, "Category": 4, "NOM": "Ville de Sherbrooke" }, "geometry": { "type": "Point", "coordinates": [ -71.851315, 45.415307 ] } },
{ "type": "Feature", "properties": { "Id": "2111", "Name": "Raby - Normand", "Type": "Cluster", "SAMPLE_1": 32768, "SAMPLE_2": 45875, "SAMPLE_3": 18350, "Category": 2, "NOM": "Ville de Sherbrooke" }, "geometry": { "type": "Point", "coordinates": [ -71.8405435, 45.4106675 ] } },
{ "type": "Feature", "properties": { "Id": "2110", "Name": "Normand - Jetté", "Type": "Cluster", "SAMPLE_1": 16384, "SAMPLE_2": 32113, "SAMPLE_3": 9175, "Category": 4, "NOM": "Ville de Sherbrooke" }, "geometry": { "type": "Point", "coordinates": [ -71.8367585, 45.4116815 ] } },
{ "type": "Feature", "properties": { "Id": "1519", "Name": "Normand - Marceau", "Type": "Cluster", "SAMPLE_1": 8520, "SAMPLE_2": 24904, "SAMPLE_3": 4588, "Category": 5, "NOM": "Ville de Sherbrooke" }, "geometry": { "type": "Point", "coordinates": [ -71.834721, 45.411466 ] } },
{ "type": "Feature", "properties": { "Id": "607", "Name": "Place Normand", "Type": "Cluster", "SAMPLE_1": 12452, "SAMPLE_2": 28180, "SAMPLE_3": 7209, "Category": 4, "NOM": "Ville de Sherbrooke" }, "geometry": { "type": "Point", "coordinates": [ -71.832399, 45.411277 ] } },
{ "type": "Feature", "properties": { "Id": "1797", "Name": "Normand - Allard-Allard - Normand", "Type": "Cluster", "SAMPLE_1": 16384, "SAMPLE_2": 32113, "SAMPLE_3": 9175, "Category": 4, "NOM": "Ville de Sherbrooke" }, "geometry": { "type": "Point", "coordinates": [ -71.8298417, 45.4111837 ] } },
{ "type": "Feature", "properties": { "Id": "2254", "Name": "Allard - des Rubis", "Type": "Cluster", "SAMPLE_1": 12452, "SAMPLE_2": 28180, "SAMPLE_3": 7209, "Category": 4, "NOM": "Ville de Sherbrooke" }, "geometry": { "type": "Point", "coordinates": [ -71.8296195, 45.4087055 ] } },
{ "type": "Feature", "properties": { "Id": "2060", "Name": "Allard - Galvin", "Type": "Cluster", "SAMPLE_1": 16384, "SAMPLE_2": 32113, "SAMPLE_3": 9175, "Category": 4, "NOM": "Ville de Sherbrooke" }, "geometry": { "type": "Point", "coordinates": [ -71.8297463, 45.4057843 ] } },
{ "type": "Feature", "properties": { "Id": "621", "Name": "Parc Gilles-Charland", "Type": "Cluster", "SAMPLE_1": 8520, "SAMPLE_2": 24904, "SAMPLE_3": 4588, "Category": 5, "NOM": "Ville de Sherbrooke" }, "geometry": { "type": "Point", "coordinates": [ -71.835071, 45.4063435 ] } },
{ "type": "Feature", "properties": { "Id": "622", "Name": "Galvin - Raby", "Type": "Cluster", "SAMPLE_1": 12452, "SAMPLE_2": 28180, "SAMPLE_3": 7209, "Category": 4, "NOM": "Ville de Sherbrooke" }, "geometry": { "type": "Point", "coordinates": [ -71.839102, 45.4066555 ] } },
{ "type": "Feature", "properties": { "Id": "2296", "Name": "Galvin - Lucien-Brunelle- des Palmiers", "Type": "Cluster", "SAMPLE_1": 16384, "SAMPLE_2": 32113, "SAMPLE_3": 9175, "Category": 4, "NOM": "Ville de Sherbrooke" }, "geometry": { "type": "Point", "coordinates": [ -71.8441655, 45.406639 ] } },
{ "type": "Feature", "properties": { "Id": "629", "Name": "Parc Desranleau", "Type": "Cluster", "SAMPLE_1": 12452, "SAMPLE_2": 28180, "SAMPLE_3": 7209, "Category": 4, "NOM": "Ville de Sherbrooke" }, "geometry": { "type": "Point", "coordinates": [ -71.850745, 45.406073 ] } },
{ "type": "Feature", "properties": { "Id": "2297", "Name": "Centre Julien-Ducharme", "Type": "Cluster", "SAMPLE_1": 16384, "SAMPLE_2": 32113, "SAMPLE_3": 9175, "Category": 4, "NOM": "Ville de Sherbrooke" }, "geometry": { "type": "Point", "coordinates": [ -71.852715, 45.432545 ] } },
{ "type": "Feature", "properties": { "Id": "2088", "Name": "Brûlotte - 12e av. Nord", "Type": "Cluster", "SAMPLE_1": 24904, "SAMPLE_2": 38666, "SAMPLE_3": 13763, "Category": 3, "NOM": "Ville de Sherbrooke" }, "geometry": { "type": "Point", "coordinates": [ -71.868642, 45.4284178 ] } },
{ "type": "Feature", "properties": { "Id": "2281", "Name": "12e av. Nord - A-610", "Type": "Cluster", "SAMPLE_1": 37356, "SAMPLE_2": 49152, "SAMPLE_3": 20972, "Category": 2, "NOM": "Ville de Sherbrooke" }, "geometry": { "type": "Point", "coordinates": [ -71.868387, 45.4343325 ] } },
{ "type": "Feature", "properties": { "Id": "2415", "Name": "King Est - Evans", "Type": "Cluster", "SAMPLE_1": 16384, "SAMPLE_2": 32113, "SAMPLE_3": 9175, "Category": 4, "NOM": "Ville de Sherbrooke" }, "geometry": { "type": "Point", "coordinates": [ -71.848559, 45.4097177 ] } },
{ "type": "Feature", "properties": { "Id": "1301", "Name": "King Est (no.2080)", "Type": "Cluster", "SAMPLE_1": 12452, "SAMPLE_2": 28180, "SAMPLE_3": 7209, "Category": 4, "NOM": "Ville de Sherbrooke" }, "geometry": { "type": "Point", "coordinates": [ -71.84413, 45.410787 ] } },
{ "type": "Feature", "properties": { "Id": "1631", "Name": "King Est - Raby", "Type": "Cluster", "SAMPLE_1": 32768, "SAMPLE_2": 45875, "SAMPLE_3": 18350, "Category": 2, "NOM": "Ville de Sherbrooke" }, "geometry": { "type": "Point", "coordinates": [ -71.841149, 45.411557 ] } },
{ "type": "Feature", "properties": { "Id": "2051", "Name": "Parc Desranleau", "Type": "Cluster", "SAMPLE_1": 20316, "SAMPLE_2": 35389, "SAMPLE_3": 11796, "Category": 3, "NOM": "Ville de Sherbrooke" }, "geometry": { "type": "Point", "coordinates": [ -71.849701, 45.405935 ] } },
{ "type": "Feature", "properties": { "Id": "2109", "Name": "Normand - Marceau", "Type": "Cluster", "SAMPLE_1": 8520, "SAMPLE_2": 24904, "SAMPLE_3": 4588, "Category": 5, "NOM": "Ville de Sherbrooke" }, "geometry": { "type": "Point", "coordinates": [ -71.833558, 45.411481 ] } },
{ "type": "Feature", "properties": { "Id": "2112", "Name": "King Est (no.2140)", "Type": "Cluster", "SAMPLE_1": 12452, "SAMPLE_2": 28180, "SAMPLE_3": 7209, "Category": 4, "NOM": "Ville de Sherbrooke" }, "geometry": { "type": "Point", "coordinates": [ -71.843119, 45.411289 ] } },
{ "type": "Feature", "properties": { "Id": "2114", "Name": "King Est - Galt Est", "Type": "Cluster", "SAMPLE_1": 32768, "SAMPLE_2": 45875, "SAMPLE_3": 18350, "Category": 2, "NOM": "Ville de Sherbrooke" }, "geometry": { "type": "Point", "coordinates": [ -71.85167, 45.408921 ] } },
{ "type": "Feature", "properties": { "Id": "1791", "Name": "12e av. Nord - Bossé", "Type": "Cluster", "SAMPLE_1": 32768, "SAMPLE_2": 45875, "SAMPLE_3": 18350, "Category": 2, "NOM": "Ville de Sherbrooke" }, "geometry": { "type": "Point", "coordinates": [ -71.868337, 45.4323255 ] } },
{ "type": "Feature", "properties": { "Id": "1649", "Name": "Virginie-Laflamme - Jeannine-Lépine", "Type": "Cluster", "SAMPLE_1": 8520, "SAMPLE_2": 24904, "SAMPLE_3": 4588, "Category": 5, "NOM": "Ville de Sherbrooke" }, "geometry": { "type": "Point", "coordinates": [ -71.849138, 45.420899 ] } },
{ "type": "Feature", "properties": { "Id": "1648", "Name": "Virginie-Laflamme - Philippe-Gaumond", "Type": "Cluster", "SAMPLE_1": 16384, "SAMPLE_2": 32113, "SAMPLE_3": 9175, "Category": 4, "NOM": "Ville de Sherbrooke" }, "geometry": { "type": "Point", "coordinates": [ -71.846335, 45.419856 ] } },
{ "type": "Feature", "properties": { "Id": "1646", "Name": "Roger-Caron - Virginie-Laflamme", "Type": "Cluster", "SAMPLE_1": 12452, "SAMPLE_2": 28180, "SAMPLE_3": 7209, "Category": 4, "NOM": "Ville de Sherbrooke" }, "geometry": { "type": "Point", "coordinates": [ -71.844052, 45.419698 ] } },
{ "type": "Feature", "properties": { "Id": "1651", "Name": "Roger-Caron - Ch. Lemire", "Type": "Cluster", "SAMPLE_1": 8520, "SAMPLE_2": 24904, "SAMPLE_3": 4588, "Category": 5, "NOM": "Ville de Sherbrooke" }, "geometry": { "type": "Point", "coordinates": [ -71.845822, 45.423045 ] } },
{ "type": "Feature", "properties": { "Id": "1654", "Name": "Parrot - King Est", "Type": "Cluster", "SAMPLE_1": 32768, "SAMPLE_2": 45875, "SAMPLE_3": 18350, "Category": 2, "NOM": "Ville de Sherbrooke" }, "geometry": { "type": "Point", "coordinates": [ -71.827438, 45.422243 ] } },
{ "type": "Feature", "properties": { "Id": "1655", "Name": "Parrot - Émile", "Type": "Cluster", "SAMPLE_1": 0, "SAMPLE_2": 17695, "SAMPLE_3": 0, "Category": 5, "NOM": "Ville de Sherbrooke" }, "geometry": { "type": "Point", "coordinates": [ -71.831628, 45.422522 ] } },
{ "type": "Feature", "properties": { "Id": "1653", "Name": "des Alpes - de l'Atlas", "Type": "Cluster", "SAMPLE_1": 8520, "SAMPLE_2": 24904, "SAMPLE_3": 4588, "Category": 5, "NOM": "Ville de Sherbrooke" }, "geometry": { "type": "Point", "coordinates": [ -71.834042, 45.421833 ] } },
{ "type": "Feature", "properties": { "Id": "1656", "Name": "des Rocheuses - des Alpes", "Type": "Cluster", "SAMPLE_1": 24904, "SAMPLE_2": 38666, "SAMPLE_3": 13763, "Category": 3, "NOM": "Ville de Sherbrooke" }, "geometry": { "type": "Point", "coordinates": [ -71.83177, 45.420231 ] } },
{ "type": "Feature", "properties": { "Id": "1652", "Name": "des Rocheuses - King Est", "Type": "Cluster", "SAMPLE_1": 24904, "SAMPLE_2": 38666, "SAMPLE_3": 13763, "Category": 3, "NOM": "Ville de Sherbrooke" }, "geometry": { "type": "Point", "coordinates": [ -71.828404, 45.419901 ] } },
{ "type": "Feature", "properties": { "Id": "1645", "Name": "King Est - Payeur", "Type": "Cluster", "SAMPLE_1": 28836, "SAMPLE_2": 41943, "SAMPLE_3": 16384, "Category": 2, "NOM": "Ville de Sherbrooke" }, "geometry": { "type": "Point", "coordinates": [ -71.830067, 45.416923 ] } },
{ "type": "Feature", "properties": { "Id": "1647", "Name": "King Est - Jetté", "Type": "Cluster", "SAMPLE_1": 12452, "SAMPLE_2": 28180, "SAMPLE_3": 7209, "Category": 4, "NOM": "Ville de Sherbrooke" }, "geometry": { "type": "Point", "coordinates": [ -71.837196, 45.412619 ] } },
{ "type": "Feature", "properties": { "Id": "2362", "Name": "Beattie - Willowdale", "Type": "Cluster", "SAMPLE_1": 0, "SAMPLE_2": 17695, "SAMPLE_3": 0, "Category": 5, "NOM": "Ville de Sherbrooke" }, "geometry": { "type": "Point", "coordinates": [ -71.848425, 45.379388 ] } },
{ "type": "Feature", "properties": { "Id": "1786", "Name": "Willowdale - Marjorie-Donald", "Type": "Cluster", "SAMPLE_1": 12452, "SAMPLE_2": 28180, "SAMPLE_3": 7209, "Category": 4, "NOM": "Ville de Sherbrooke" }, "geometry": { "type": "Point", "coordinates": [ -71.845028, 45.377744 ] } },
{ "type": "Feature", "properties": { "Id": "2363", "Name": "Champigny - Willowdale", "Type": "Cluster", "SAMPLE_1": 3932, "SAMPLE_2": 21627, "SAMPLE_3": 2621, "Category": 5, "NOM": "Ville de Sherbrooke" }, "geometry": { "type": "Point", "coordinates": [ -71.843776, 45.376664 ] } },
{ "type": "Feature", "properties": { "Id": "2364", "Name": "Atto - Moulton Hill", "Type": "Cluster", "SAMPLE_1": 8520, "SAMPLE_2": 24904, "SAMPLE_3": 4588, "Category": 5, "NOM": "Ville de Sherbrooke" }, "geometry": { "type": "Point", "coordinates": [ -71.8418, 45.37499 ] } },
{ "type": "Feature", "properties": { "Id": "2365", "Name": "Bishop's College School", "Type": "Cluster", "SAMPLE_1": 0, "SAMPLE_2": 17695, "SAMPLE_3": 0, "Category": 5, "NOM": "Ville de Sherbrooke" }, "geometry": { "type": "Point", "coordinates": [ -71.844929, 45.371044 ] } },
{ "type": "Feature", "properties": { "Id": "94_merged_855792", "Name": "College - Little Forks", "Type": "Cluster", "SAMPLE_1": 20316, "SAMPLE_2": 35389, "SAMPLE_3": 11796, "Category": 3, "NOM": "Ville de Sherbrooke" }, "geometry": { "type": "Point", "coordinates": [ -71.8528677, 45.36618 ] } },
{ "type": "Feature", "properties": { "Id": "93", "Name": "Université Bishop's - Collège Champlain", "Type": "Cluster", "SAMPLE_1": 24904, "SAMPLE_2": 38666, "SAMPLE_3": 13763, "Category": 3, "NOM": "Ville de Sherbrooke" }, "geometry": { "type": "Point", "coordinates": [ -71.847997, 45.366406 ] } },
{ "type": "Feature", "properties": { "Id": "2355", "Name": "Bishop's (stade Coulter Field)", "Type": "Cluster", "SAMPLE_1": 16384, "SAMPLE_2": 32113, "SAMPLE_3": 9175, "Category": 4, "NOM": "Ville de Sherbrooke" }, "geometry": { "type": "Point", "coordinates": [ -71.84342, 45.3660915 ] } },
{ "type": "Feature", "properties": { "Id": "2356", "Name": "College (Ferme expérimentale)", "Type": "Cluster", "SAMPLE_1": 8520, "SAMPLE_2": 24904, "SAMPLE_3": 4588, "Category": 5, "NOM": "Ville de Sherbrooke" }, "geometry": { "type": "Point", "coordinates": [ -71.830561, 45.368329 ] } },
{ "type": "Feature", "properties": { "Id": "2357", "Name": "Alexander-Galt", "Type": "Cluster", "SAMPLE_1": 20316, "SAMPLE_2": 35389, "SAMPLE_3": 11796, "Category": 3, "NOM": "Ville de Sherbrooke" }, "geometry": { "type": "Point", "coordinates": [ -71.815462, 45.365296 ] } },
{ "type": "Feature", "properties": { "Id": "2359", "Name": "St.Francis - Moulton Hill", "Type": "Cluster", "SAMPLE_1": 0, "SAMPLE_2": 17695, "SAMPLE_3": 0, "Category": 5, "NOM": "Ville de Sherbrooke" }, "geometry": { "type": "Point", "coordinates": [ -71.84675, 45.36915 ] } },
{ "type": "Feature", "properties": { "Id": "2360", "Name": "St.Francis - Atto", "Type": "Cluster", "SAMPLE_1": 8520, "SAMPLE_2": 24904, "SAMPLE_3": 4588, "Category": 5, "NOM": "Ville de Sherbrooke" }, "geometry": { "type": "Point", "coordinates": [ -71.851336, 45.375479 ] } },
{ "type": "Feature", "properties": { "Id": "1785", "Name": "St-Francis - Champigny", "Type": "Cluster", "SAMPLE_1": 3932, "SAMPLE_2": 21627, "SAMPLE_3": 2621, "Category": 5, "NOM": "Ville de Sherbrooke" }, "geometry": { "type": "Point", "coordinates": [ -71.851938, 45.376542 ] } },
{ "type": "Feature", "properties": { "Id": "2361", "Name": "Parc Atto-Beaver", "Type": "Cluster", "SAMPLE_1": 0, "SAMPLE_2": 17695, "SAMPLE_3": 0, "Category": 5, "NOM": "Ville de Sherbrooke" }, "geometry": { "type": "Point", "coordinates": [ -71.852757, 45.377908 ] } },
{ "type": "Feature", "properties": { "Id": "210", "Name": "King Est - Murray", "Type": "Cluster", "SAMPLE_1": 45220, "SAMPLE_2": 49807, "SAMPLE_3": 24904, "Category": 1, "NOM": "Ville de Sherbrooke" }, "geometry": { "type": "Point", "coordinates": [ -71.880332, 45.407834 ] } },
{ "type": "Feature", "properties": { "Id": "211", "Name": "Murray (no.162)", "Type": "Cluster", "SAMPLE_1": 16384, "SAMPLE_2": 32113, "SAMPLE_3": 9175, "Category": 4, "NOM": "Ville de Sherbrooke" }, "geometry": { "type": "Point", "coordinates": [ -71.8800465, 45.40553 ] } },
{ "type": "Feature", "properties": { "Id": "352", "Name": "Murray - du Conseil", "Type": "Cluster", "SAMPLE_1": 24904, "SAMPLE_2": 38666, "SAMPLE_3": 13763, "Category": 3, "NOM": "Ville de Sherbrooke" }, "geometry": { "type": "Point", "coordinates": [ -71.8795985, 45.4031765 ] } },
{ "type": "Feature", "properties": { "Id": "373", "Name": "Parc Antonio-Montour", "Type": "Cluster", "SAMPLE_1": 16384, "SAMPLE_2": 32113, "SAMPLE_3": 9175, "Category": 4, "NOM": "Ville de Sherbrooke" }, "geometry": { "type": "Point", "coordinates": [ -71.8781077, 45.4010732 ] } },
{ "type": "Feature", "properties": { "Id": "2001", "Name": "Bowen Sud - Chalifoux", "Type": "Cluster", "SAMPLE_1": 12452, "SAMPLE_2": 28180, "SAMPLE_3": 7209, "Category": 4, "NOM": "Ville de Sherbrooke" }, "geometry": { "type": "Point", "coordinates": [ -71.882168, 45.4010675 ] } },
{ "type": "Feature", "properties": { "Id": "2407", "Name": "Bowen Sud - Johnson", "Type": "Cluster", "SAMPLE_1": 3932, "SAMPLE_2": 21627, "SAMPLE_3": 2621, "Category": 5, "NOM": "Ville de Sherbrooke" }, "geometry": { "type": "Point", "coordinates": [ -71.8814825, 45.400069 ] } },
{ "type": "Feature", "properties": { "Id": "306", "Name": "Bowen Sud (CHUS - Hôtel-Dieu)", "Type": "Cluster", "SAMPLE_1": 20316, "SAMPLE_2": 35389, "SAMPLE_3": 11796, "Category": 3, "NOM": "Ville de Sherbrooke" }, "geometry": { "type": "Point", "coordinates": [ -71.880255, 45.3986985 ] } },
{ "type": "Feature", "properties": { "Id": "307", "Name": "Bowen Sud - Galt Est- Woodward-École De la Montée - Pavillon Saint-François", "Type": "Cluster", "SAMPLE_1": 24904, "SAMPLE_2": 38666, "SAMPLE_3": 13763, "Category": 3, "NOM": "Ville de Sherbrooke" }, "geometry": { "type": "Point", "coordinates": [ -71.878444, 45.3967274 ] } },
{ "type": "Feature", "properties": { "Id": "1660", "Name": "École De la Montée - Pavillon Saint-François", "Type": "Cluster", "SAMPLE_1": 20316, "SAMPLE_2": 35389, "SAMPLE_3": 11796, "Category": 3, "NOM": "Ville de Sherbrooke" }, "geometry": { "type": "Point", "coordinates": [ -71.877403, 45.394947 ] } },
{ "type": "Feature", "properties": { "Id": "1659", "Name": "Bowen Sud - de l'Oasis", "Type": "Cluster", "SAMPLE_1": 16384, "SAMPLE_2": 32113, "SAMPLE_3": 9175, "Category": 4, "NOM": "Ville de Sherbrooke" }, "geometry": { "type": "Point", "coordinates": [ -71.875514, 45.392958 ] } },
{ "type": "Feature", "properties": { "Id": "2010", "Name": "Bowen Sud - de Caen", "Type": "Cluster", "SAMPLE_1": 12452, "SAMPLE_2": 28180, "SAMPLE_3": 7209, "Category": 4, "NOM": "Ville de Sherbrooke" }, "geometry": { "type": "Point", "coordinates": [ -71.871799, 45.390325 ] } },
{ "type": "Feature", "properties": { "Id": "2424", "Name": "Marie-Reine - Bowen-Bowen Sud - Trudelle", "Type": "Cluster", "SAMPLE_1": 20316, "SAMPLE_2": 35389, "SAMPLE_3": 11796, "Category": 3, "NOM": "Ville de Sherbrooke" }, "geometry": { "type": "Point", "coordinates": [ -71.869867, 45.3892527 ] } },
{ "type": "Feature", "properties": { "Id": "2012", "Name": "de Caen - Walsh", "Type": "Cluster", "SAMPLE_1": 20316, "SAMPLE_2": 35389, "SAMPLE_3": 11796, "Category": 3, "NOM": "Ville de Sherbrooke" }, "geometry": { "type": "Point", "coordinates": [ -71.868991, 45.390285 ] } },
{ "type": "Feature", "properties": { "Id": "12", "Name": "Aubry - de Caen", "Type": "Cluster", "SAMPLE_1": 24904, "SAMPLE_2": 38666, "SAMPLE_3": 13763, "Category": 3, "NOM": "Ville de Sherbrooke" }, "geometry": { "type": "Point", "coordinates": [ -71.865086, 45.390384 ] } },
{ "type": "Feature", "properties": { "Id": "18", "Name": "Bowen Sud - Aubry", "Type": "Cluster", "SAMPLE_1": 16384, "SAMPLE_2": 32113, "SAMPLE_3": 9175, "Category": 4, "NOM": "Ville de Sherbrooke" }, "geometry": { "type": "Point", "coordinates": [ -71.8645963, 45.3875967 ] } },
{ "type": "Feature", "properties": { "Id": "2015", "Name": "boul. Lavigerie - Dagenais- Bowen Sud", "Type": "Cluster", "SAMPLE_1": 12452, "SAMPLE_2": 28180, "SAMPLE_3": 7209, "Category": 4, "NOM": "Ville de Sherbrooke" }, "geometry": { "type": "Point", "coordinates": [ -71.8592205, 45.3881835 ] } },
{ "type": "Feature", "properties": { "Id": "2003", "Name": "boul. Lavigerie - Longpré", "Type": "Cluster", "SAMPLE_1": 16384, "SAMPLE_2": 32113, "SAMPLE_3": 9175, "Category": 4, "NOM": "Ville de Sherbrooke" }, "geometry": { "type": "Point", "coordinates": [ -71.85962, 45.391339 ] } },
{ "type": "Feature", "properties": { "Id": "2429", "Name": "Parc industriel de l'Est", "Type": "Cluster", "SAMPLE_1": 12452, "SAMPLE_2": 28180, "SAMPLE_3": 7209, "Category": 4, "NOM": "Ville de Sherbrooke" }, "geometry": { "type": "Point", "coordinates": [ -71.8618735, 45.392922 ] } },
{ "type": "Feature", "properties": { "Id": "2017", "Name": "boul. Lavigerie - Walsh", "Type": "Cluster", "SAMPLE_1": 28836, "SAMPLE_2": 41943, "SAMPLE_3": 16384, "Category": 2, "NOM": "Ville de Sherbrooke" }, "geometry": { "type": "Point", "coordinates": [ -71.867061, 45.3946565 ] } },
{ "type": "Feature", "properties": { "Id": "2194", "Name": "Galt Est - boul. Lavigerie", "Type": "Cluster", "SAMPLE_1": 28836, "SAMPLE_2": 41943, "SAMPLE_3": 16384, "Category": 2, "NOM": "Ville de Sherbrooke" }, "geometry": { "type": "Point", "coordinates": [ -71.868219, 45.396347 ] } },
{ "type": "Feature", "properties": { "Id": "453", "Name": "Galt Est - Des Ormeaux", "Type": "Cluster", "SAMPLE_1": 32768, "SAMPLE_2": 45875, "SAMPLE_3": 18350, "Category": 2, "NOM": "Ville de Sherbrooke" }, "geometry": { "type": "Point", "coordinates": [ -71.870653, 45.3963315 ] } },
{ "type": "Feature", "properties": { "Id": "454", "Name": "Galt Est - 7e av. Sud", "Type": "Cluster", "SAMPLE_1": 16384, "SAMPLE_2": 32113, "SAMPLE_3": 9175, "Category": 4, "NOM": "Ville de Sherbrooke" }, "geometry": { "type": "Point", "coordinates": [ -71.873753, 45.396228 ] } },
{ "type": "Feature", "properties": { "Id": "387", "Name": "Carrefour de l'Estrie (Caisse Desjardins)-Carrefour de l'Estrie (Super C)", "Type": "Cluster", "SAMPLE_1": 37356, "SAMPLE_2": 49152, "SAMPLE_3": 20972, "Category": 2, "NOM": "Ville de Sherbrooke" }, "geometry": { "type": "Point", "coordinates": [ -71.94889, 45.402543 ] } },
{ "type": "Feature", "properties": { "Id": "1166", "Name": "SAAQ", "Type": "Cluster", "SAMPLE_1": 24904, "SAMPLE_2": 38666, "SAMPLE_3": 13763, "Category": 3, "NOM": "Ville de Sherbrooke" }, "geometry": { "type": "Point", "coordinates": [ -71.946805, 45.4036405 ] } },
{ "type": "Feature", "properties": { "Id": "386", "Name": "boul. de Portland - boul. Lionel-Groulx", "Type": "Cluster", "SAMPLE_1": 24904, "SAMPLE_2": 38666, "SAMPLE_3": 13763, "Category": 3, "NOM": "Ville de Sherbrooke" }, "geometry": { "type": "Point", "coordinates": [ -71.9424585, 45.403809 ] } },
{ "type": "Feature", "properties": { "Id": "1484", "Name": "boul. Lionel-Groulx - de Candiac", "Type": "Cluster", "SAMPLE_1": 20316, "SAMPLE_2": 35389, "SAMPLE_3": 11796, "Category": 3, "NOM": "Ville de Sherbrooke" }, "geometry": { "type": "Point", "coordinates": [ -71.9422775, 45.4007715 ] } },
{ "type": "Feature", "properties": { "Id": "1487", "Name": "boul. Lionel-Groulx - passage La Dauversière", "Type": "Cluster", "SAMPLE_1": 20316, "SAMPLE_2": 35389, "SAMPLE_3": 11796, "Category": 3, "NOM": "Ville de Sherbrooke" }, "geometry": { "type": "Point", "coordinates": [ -71.941155, 45.3990895 ] } },
{ "type": "Feature", "properties": { "Id": "277", "Name": "Place des congrés-Place des Congrès", "Type": "Cluster", "SAMPLE_1": 32768, "SAMPLE_2": 45875, "SAMPLE_3": 18350, "Category": 2, "NOM": "Ville de Sherbrooke" }, "geometry": { "type": "Point", "coordinates": [ -71.9388015, 45.398151 ] } },
{ "type": "Feature", "properties": { "Id": "276", "Name": "King Ouest - des Quatre-Pins- de Carillon", "Type": "Cluster", "SAMPLE_1": 37356, "SAMPLE_2": 49152, "SAMPLE_3": 20972, "Category": 2, "NOM": "Ville de Sherbrooke" }, "geometry": { "type": "Point", "coordinates": [ -71.934155, 45.398298 ] } },
{ "type": "Feature", "properties": { "Id": "275", "Name": "King Ouest - Clark", "Type": "Cluster", "SAMPLE_1": 45220, "SAMPLE_2": 49807, "SAMPLE_3": 24904, "Category": 1, "NOM": "Ville de Sherbrooke" }, "geometry": { "type": "Point", "coordinates": [ -71.932476, 45.39834 ] } },
{ "type": "Feature", "properties": { "Id": "1478", "Name": "King Ouest - Lomas", "Type": "Cluster", "SAMPLE_1": 41943, "SAMPLE_2": 52429, "SAMPLE_3": 22938, "Category": 1, "NOM": "Ville de Sherbrooke" }, "geometry": { "type": "Point", "coordinates": [ -71.9302495, 45.3986113 ] } },
{ "type": "Feature", "properties": { "Id": "272", "Name": "King Ouest - Farwell", "Type": "Cluster", "SAMPLE_1": 45220, "SAMPLE_2": 49807, "SAMPLE_3": 24904, "Category": 1, "NOM": "Ville de Sherbrooke" }, "geometry": { "type": "Point", "coordinates": [ -71.9263843, 45.398344 ] } },
{ "type": "Feature", "properties": { "Id": "270", "Name": "King Ouest - Fraser", "Type": "Cluster", "SAMPLE_1": 37356, "SAMPLE_2": 49152, "SAMPLE_3": 20972, "Category": 2, "NOM": "Ville de Sherbrooke" }, "geometry": { "type": "Point", "coordinates": [ -71.923105, 45.3983585 ] } },
{ "type": "Feature", "properties": { "Id": "178", "Name": "boul. Jacques-Cartier - King Ouest", "Type": "Cluster", "SAMPLE_1": 37356, "SAMPLE_2": 49152, "SAMPLE_3": 20972, "Category": 2, "NOM": "Ville de Sherbrooke" }, "geometry": { "type": "Point", "coordinates": [ -71.918652, 45.3986703 ] } },
{ "type": "Feature", "properties": { "Id": "268", "Name": "CSST", "Type": "Cluster", "SAMPLE_1": 45220, "SAMPLE_2": 49807, "SAMPLE_3": 24904, "Category": 1, "NOM": "Ville de Sherbrooke" }, "geometry": { "type": "Point", "coordinates": [ -71.9163195, 45.398628 ] } },
{ "type": "Feature", "properties": { "Id": "267", "Name": "King Ouest - Argyll", "Type": "Cluster", "SAMPLE_1": 45220, "SAMPLE_2": 49807, "SAMPLE_3": 24904, "Category": 1, "NOM": "Ville de Sherbrooke" }, "geometry": { "type": "Point", "coordinates": [ -71.9132635, 45.3986605 ] } },
{ "type": "Feature", "properties": { "Id": "266", "Name": "King Ouest - de Vimy", "Type": "Cluster", "SAMPLE_1": 32768, "SAMPLE_2": 45875, "SAMPLE_3": 18350, "Category": 2, "NOM": "Ville de Sherbrooke" }, "geometry": { "type": "Point", "coordinates": [ -71.9106115, 45.398686 ] } },
{ "type": "Feature", "properties": { "Id": "265", "Name": "King Ouest - de l'Ontario", "Type": "Cluster", "SAMPLE_1": 28836, "SAMPLE_2": 41943, "SAMPLE_3": 16384, "Category": 2, "NOM": "Ville de Sherbrooke" }, "geometry": { "type": "Point", "coordinates": [ -71.908109, 45.3987535 ] } },
{ "type": "Feature", "properties": { "Id": "263", "Name": "Centre d'information touristique", "Type": "Cluster", "SAMPLE_1": 41943, "SAMPLE_2": 52429, "SAMPLE_3": 22938, "Category": 1, "NOM": "Ville de Sherbrooke" }, "geometry": { "type": "Point", "coordinates": [ -71.901746, 45.3986785 ] } },
{ "type": "Feature", "properties": { "Id": "346", "Name": "King Ouest - Belvédère Sud- Belvédère Nord", "Type": "Cluster", "SAMPLE_1": 45220, "SAMPLE_2": 49807, "SAMPLE_3": 24904, "Category": 1, "NOM": "Ville de Sherbrooke" }, "geometry": { "type": "Point", "coordinates": [ -71.8967091, 45.398643 ] } },
{ "type": "Feature", "properties": { "Id": "261", "Name": "Place de la Cité", "Type": "Cluster", "SAMPLE_1": 32768, "SAMPLE_2": 45875, "SAMPLE_3": 18350, "Category": 2, "NOM": "Ville de Sherbrooke" }, "geometry": { "type": "Point", "coordinates": [ -71.894839, 45.39949 ] } },
{ "type": "Feature", "properties": { "Id": "1340", "Name": "King Ouest - Rioux", "Type": "Cluster", "SAMPLE_1": 37356, "SAMPLE_2": 49152, "SAMPLE_3": 20972, "Category": 2, "NOM": "Ville de Sherbrooke" }, "geometry": { "type": "Point", "coordinates": [ -71.921172, 45.398616 ] } },
{ "type": "Feature", "properties": { "Id": "278", "Name": "King Ouest - boul. Lionel-Groulx- de la Burlington", "Type": "Cluster", "SAMPLE_1": 28836, "SAMPLE_2": 41943, "SAMPLE_3": 16384, "Category": 2, "NOM": "Ville de Sherbrooke" }, "geometry": { "type": "Point", "coordinates": [ -71.9406865, 45.398031 ] } },
{ "type": "Feature", "properties": { "Id": "1485", "Name": "boul. Lionel-Groulx - boul. de Portland", "Type": "Cluster", "SAMPLE_1": 12452, "SAMPLE_2": 28180, "SAMPLE_3": 7209, "Category": 4, "NOM": "Ville de Sherbrooke" }, "geometry": { "type": "Point", "coordinates": [ -71.942191, 45.403035 ] } },
{ "type": "Feature", "properties": { "Id": "313", "Name": "boul. Industriel (no.3820)", "Type": "Cluster", "SAMPLE_1": 16384, "SAMPLE_2": 32113, "SAMPLE_3": 9175, "Category": 4, "NOM": "Ville de Sherbrooke" }, "geometry": { "type": "Point", "coordinates": [ -71.963308, 45.401024 ] } },
{ "type": "Feature", "properties": { "Id": "295", "Name": "boul. Industriel (no.3975)", "Type": "Cluster", "SAMPLE_1": 37356, "SAMPLE_2": 49152, "SAMPLE_3": 20972, "Category": 2, "NOM": "Ville de Sherbrooke" }, "geometry": { "type": "Point", "coordinates": [ -71.9633065, 45.39803 ] } },
{ "type": "Feature", "properties": { "Id": "994", "Name": "boul. Industriel (no.4155)", "Type": "Cluster", "SAMPLE_1": 20316, "SAMPLE_2": 35389, "SAMPLE_3": 11796, "Category": 3, "NOM": "Ville de Sherbrooke" }, "geometry": { "type": "Point", "coordinates": [ -71.9664285, 45.3959465 ] } },
{ "type": "Feature", "properties": { "Id": "314", "Name": "boul. Industriel (no.4229)", "Type": "Cluster", "SAMPLE_1": 32768, "SAMPLE_2": 45875, "SAMPLE_3": 18350, "Category": 2, "NOM": "Ville de Sherbrooke" }, "geometry": { "type": "Point", "coordinates": [ -71.968401, 45.395868 ] } },